,id,user,text,retweet_count,location,latitude,longitude,country
0,889924973195915270,xxVmCfxx,'Am i the only one who still prefers #SmackDownLIVE over #RAW ?',0,'Nazar\xc3\xa9  Portugal',39.39987199999999,-8.224454,Portugal
1,889923811113566209,haydngleed,'RT @prowrestlingnet: Has #WWE #SmackDownLIVE hit rock bottom? New @haydngleed blog: https://t.co/LPOkaFWuis',1,'Cardiff  Wales',51.48158100000001,-3.17909, UK
2,889923730595618818,wweheel2,'Who Ready For #SmackdownLive Tonight...\n\n#WWE #SmackDownLIVE https://t.co/s0OBDKguJe',0,'',,,
3,889921662128443394,LooseTrunksYT,'#SmackDownLive Is Tonight There Turn To Add Some Matches To #SummerSlam Who Will @JinderMahal Face? A New  Challeng\xe2\x80\xa6 https://t.co/G8xcGpdTA4',0,'Rainham Essex',51.517732,0.194831, UK
4,889920668799840260,Carloswwe6,'RT @MariaLKanellis: Good Morning... #REDy #smackdownlive #keepingupwithkanellises #firstlady #poweroflove #treehat\xe2\x80\xa6 https://t.co/RwRsbSmaQA',8,'Costa Rica',9.748916999999999,-83.753428,Costa Rica
5,889919462530584584,offiziell_Flous,'NewDay Car\xf0\x9f\xa6\x84\xf0\x9f\xa6\x84\xf0\x9f\xa6\x84  #SmackDownLIVE #newday\n\n@XavierWoodsPhD @TrueKofi https://t.co/DzRb0AMay2',0,'',,,
6,889919278455164929,_TimJames,"'@primetimeklein @CoversJLo @FAN960Patrick Wait, no #SmackdownLive preview?!'",0,'Vancouver / North Delta',49.171634,-122.910981, Canada
7,889919164202266629,bjcarpenter30,'Getting ready to watch my two favorites on #SmackDownLIVE @AJStylesOrg and @ShinsukeN',0,'',,,
8,889918084005466114,Cornjdw,"""RT @RealMickFoley: I have a little post up about how much I like @NaomiWWE's new #SmackDownLive #WomensChampionship title. #FeelTheGlow htt\xe2\x80\xa6""",152,'Miami fl',25.7616798,-80.1917902, USA
9,889917914912043010,oneandonlyCKJ,'RT @EWCoastConnect: Alright #wwe fans! We will have weekly #RAW vs #SmackDownLIVE articles starting this week. Give us a follow and we will\xe2\x80\xa6',1,'',,,
10,889917466763284480,LTO_CA,"""Smackdown's writing staff be like...\n#WWE #SmackdownLive #SDLive https://t.co/xs8Yj73H0U""",0,'California  USA',36.778261,-119.4179324, USA
11,889914468603498496,WrestlingFan692,'#SmackDownLIVE Tonight....Great Khali vs Orton will be crap! #fireroaddogg',0,'Europe...until October',54.5259614,15.2551187,Europe
12,889914322146799616,CharBecky10,'RT @ZakkIsKool: Tonight is #SmackDownLIVE! @BeckyLynchWWE https://t.co/0LTllx88Ij',2,'Oaxaca De Ju\xc3\xa1rez',,,
13,889914294757969924,prowrestlingnet,'Has #WWE #SmackDownLIVE hit rock bottom? New @haydngleed blog: https://t.co/LPOkaFWuis',1,'St. Paul  Minn.',44.9537029,-93.0899578, USA
14,889913334098788352,LegitGeo12,'\xf0\x9f\xa4\x94\xf0\x9f\xa4\x94\xf0\x9f\xa4\x94\xf0\x9f\xa4\x94Will @JinderMahal and @thegreatkhail form the ultimate tag team ?\xf0\x9f\x98\xb1\xf0\x9f\x98\xb1\xf0\x9f\x98\xb1\xf0\x9f\x98\xb1 Find out on #SmackdownLIVE at 7e\\8p\xf0\x9f\x92\xaa\xf0\x9f\x92\xaa\xf0\x9f\x92\xaa',0,'Bahamas',25.03428,-77.39627999999999,The Bahamas
15,889912789137076226,fatdurak,'RT @ZakkIsKool: Tonight is #SmackDownLIVE! @BeckyLynchWWE https://t.co/0LTllx88Ij',2,'',,,
16,889912014579142656,mka1090,'https://t.co/PW7sZUbGq5\n#RandyOrton vs #TheGreatKhali \n#SummerSlam #SmackDownLIVE',0,'',,,
17,889911999416741890,RebelKelley,'There here #IWO @SportsQueen_5 @kgbbexx @Autotheist01 @wwefan1991 @Naturestephh #SmackDownLIVE https://t.co/NLZNS4jxcS',0,'Valhalla CSA',,,
18,889910788701532170,TheCleanSheets,"""Let's Play @WWEChampions Ep. 35!\n\n#SmackdownLive and Bash at the Beach tours!\n\nhttps://t.co/5k9fGNTZom\n\n#LetsPlay #WWEChampions""",0,'Parts Unknown',32.754119,-97.33248200000001, USA
19,889908829978316800,MulaMitxh816,'#SmackDownLIVE @WWEUniverse Tonight Baby !! https://t.co/flTyzeakB0',0,'New York  USA',40.7127753,-74.0059728, USA
20,889908706212761600,ZakkIsKool,'Tonight is #SmackDownLIVE! @BeckyLynchWWE https://t.co/0LTllx88Ij',2,'',,,
21,889908526574956547,Bulbidavid,"'Ce soir c\xe2\x80\x99est #SmackdownLIVE, je tourne \xc3\xa0 la redbull et \xc3\xa0 la salade l\xc3\xa0 \xf0\x9f\x98\x82'",0,'Paris 15',48.8421616,2.2927665, France
22,889905762000097280,AlyssaCrofts,'Brendon has no idea Dylan &amp; I are taking him to WWE SmackDown in one week for his birthday \xf0\x9f\xa4\x97#SmackDownLIVE #Cleveland #WWE  #August1st',0,'',,,
23,889902980144746496,NickDiStefano2,"""Can't wait for #SmackdownLive tonight... maybe we will see a cash in\xf0\x9f\x98\x8f @CarmellaWWE https://t.co/qvK4jnHl47""",0,'Delaware  USA',38.9108325,-75.52766989999999, USA
24,889902882618654720,JLokiRock08,"""RT @RealMickFoley: I have a little post up about how much I like @NaomiWWE's new #SmackDownLive #WomensChampionship title. #FeelTheGlow htt\xe2\x80\xa6""",152,'',,,
25,889902653697908736,PoserWrestling,'#SmackDownLIVE #prowrestling #WWE #njpw #ROH https://t.co/Doi2nI8Q8F',0,'Slam Diego  OH',32.7489737,-117.1287955, USA
26,889902254215622656,Robert_J1,'Corporate Kane should go to Smackdown Live and help out Daniel Bryan #WWE #SmackdownLive',0,'Texas  USA',31.9685988,-99.9018131, USA
27,889899585753174016,Casandra3211,"""Tonight is @WWE #SmackDownLive I wonder what's going to happen to @JinderMahal and @Randyorton .""",0,'',,,
28,889898286475350021,stephmclamb,'Rematchtonight on #SmackDownLIVE for the United States  #Championship @AJStylesOrg against @FightOwensFight #a1\xe2\x80\xa6 https://t.co/VkgnFCUPyS',0,'Richmond  VA',37.5407246,-77.4360481, USA
29,889897885764116482,NameFameFuture,'@JinderMahal can we see The great KHALI on @WWE #SmackDownLive ?????',0,'Melaghar Tripura  India',23.4972535,91.331257, India
30,889896961779920896,OstoyicKyle,'Hopefully @WWE @TripleH @VinceMcMahon pushes @HEELZiggler and has him &amp; @FightOwensFight feud for the U.S title #SummerSlam #SmackDownLIVE',0,'Kearny/Phillipsburg/Washington',40.7684342,-74.1454214, USA
31,889895845210050561,MrxRaGe,'RT @C_DawK_15: #WWE Match Requests From Last Night! #WWERAW #SmackdownLIVE #StreamersConnected #SupportSmallStreamers #TeamEmmmmsie https:/\xe2\x80\xa6',4,'NJ',40.0583238,-74.4056612, USA
32,889895249375633408,CertifiedGangs,"""It's Tuesday so you know what that means tonight is all about @WWE #smackdownlive see the full out from\xe2\x80\xa6 https://t.co/Q6P0DzjpYi""",0,'enjoying life',41.95450049999999,-87.86970559999999, USA
33,889888568847601666,DharminD,'What is @ReneeYoungWWE doing on RAW? Y do @WWENetwork want every beautiful thing on RAW? Is #SmackdownLive a step child of WWE? \xf0\x9f\x98\x92 #SD Fan.',0,'India-Mumbai',19.0759837,72.8776559, India
34,889887773909549057,TorontoPres31,"""Cant wait to see @CarmellaWWE on #SmackDownLIVE tonight. She's the Princess of WWE as she is undisputed 2x Ms MITB!\xe2\x80\xa6 https://t.co/Jorn7q3Jxe""",0,'',,,
35,889887135586799616,UltraLiger,'RT @MariaLKanellis: Good Morning... #REDy #smackdownlive #keepingupwithkanellises #firstlady #poweroflove #treehat\xe2\x80\xa6 https://t.co/RwRsbSmaQA',8,'\xe5\x85\x89\xe3\x81\xae\xe5\x9c\x9f\xe5\x9c\xb0 located in Nebula M78.',,,
36,889886133789880322,KENDRICKSPLAN,"'RT @GentlemanJackG: Hello, Richmond. #SmackDownLIVE #205Live'",3,"""@rollinsdunne's daughter""",,,
37,889885716293062657,nahtanoj8,"""#GiveEmmaAChance Draft her to #SmackDownLIVE  @EmmaWWE @TripleH @VinceMcMahon @WWEDanielBryan #Raw women's division\xe2\x80\xa6 https://t.co/JaVIaG43kP""",0,'Trinidad and Tobago',10.691803,-61.222503,Trinidad and Tobago
38,889885337887092736,CokerAyokunle,"'RT @SinghBrosWWE: Very proud to see the \xf0\x9f\x87\xae\xf0\x9f\x87\xb3colors on a major @WWE PPV event. Next Sunday, #WWEBattleground. \n\n#SmackDownLIVE #SDLive https:/\xe2\x80\xa6'",83,'Orlando  FL/Tampa FL',27.9804823,-82.46776009999999, USA
39,889885083691364353,BlazingOptimist,"""RT @RealMickFoley: I have a little post up about how much I like @NaomiWWE's new #SmackDownLive #WomensChampionship title. #FeelTheGlow htt\xe2\x80\xa6""",152,'Derby  England',52.9225301,-1.4746186, UK
40,889884938027376645,TorontoPres31,"""RT @TorontoPres31: Can't wait to see my girl, the undisputed 2x Ms MITB @CarmellaWWE on #SmackDownLIVE tonight!!! I've got the popcorn read\xe2\x80\xa6""",1,'',,,
41,889884490167975940,cyborgsumo,'Jericho on #SmackDownLIVE tonight.',0,'SOKY',36.9345878,-86.4223403, USA
42,889883892144103425,kylemcbeth92,"'RT @GentlemanJackG: Hello, Richmond. #SmackDownLIVE #205Live'",3,'Middlesbrough',54.574227,-1.234956, UK
43,889883780084879360,TherealJaymo420,"'is a wrestling fan in general,But prefer #SmackDownLIVE anyday over #RAW .Looking forward to tonights episode'",0,'Moncton  New Brunswick',46.0878165,-64.7782313, Canada
44,889882402922823680,skinznation,"""RT @WWEDanielBryan: Don't worry, son, you'll find out who your REAL father is next week on #SmackdownLive... oh wait, did I give it away by\xe2\x80\xa6""",4461,'Fed Ex',37.2296275,-95.73064029999999, USA
45,889882395100532739,shero144,'BRAAAAAAAUUUUUUUNNNN &gt; #SmackdownLIVE',0,'Italia  Napoli',40.8517983,14.26812, Italy
46,889881903733628928,solowrestling_,"'PREVIEW UFFICIALE: WWE SmackDown Live 25.07.2017 #SmackDownLive, #PREVIEW, #WWE https://t.co/Ji2A6GL0ws https://t.co/HgcJxheLDM'",0,'',,,
47,889881443186376704,SGTShotYou,'RT @C_DawK_15: #WWE Match Requests From Last Night! #WWERAW #SmackdownLIVE #StreamersConnected #SupportSmallStreamers #TeamEmmmmsie https:/\xe2\x80\xa6',4,'United Kingdom',55.378051,-3.435973,United Kingdom
48,889881438002319362,heeIbIiss,'RT @JulieBragg: WWE Superstars ARE larger than life! Excited to meet @BaronCorbinWWE before #SmackDownLIVE in #RVA. #EOD #LoneWolf #WWE htt\xe2\x80\xa6',3,'Milwaukee  WI',43.0389025,-87.9064736, USA
49,889881437805178880,StreconnRETWEET,'RT @C_DawK_15: #WWE Match Requests From Last Night! #WWERAW #SmackdownLIVE #StreamersConnected #SupportSmallStreamers #TeamEmmmmsie https:/\xe2\x80\xa6',4,'Worldwide!',,,
50,889881330275819520,PWNYretweets,'RT @C_DawK_15: #WWE Match Requests From Last Night! #WWERAW #SmackdownLIVE #StreamersConnected #SupportSmallStreamers #TeamEmmmmsie https:/\xe2\x80\xa6',4,'Canada',56.130366,-106.346771,Canada
51,889881164122644480,C_DawK_15,'#WWE Match Requests From Last Night! #WWERAW #SmackdownLIVE #StreamersConnected #SupportSmallStreamers #TeamEmmmmsie https://t.co/9FwIkxYS2L',4,'\xe2\x98\x81\xef\xb8\x8f9',,,
52,889880631316033536,Joel_PW,"""RT @WWEDanielBryan: Don't worry, son, you'll find out who your REAL father is next week on #SmackdownLive... oh wait, did I give it away by\xe2\x80\xa6""",4461,'9.5.17',,,
53,889878752154591233,wheels_5tud,'Tonight go to @afterbuzztv for the #smackdownlive after show @Gabrielle_Loren @RealRosenberg @ScottNarver @TomtheCalm @Jimbointhebooth',0,'',,,
54,889878466635628545,TrmCory,"""@JinderMahal I can't Believe The Great Kalli is back! and you cheated On #SmackDownLIVE tonight @shanemcmahon will fire you from your job!""",0,'Selinsgrove  PA',40.7989735,-76.8621935, USA
55,889878251954417664,FranticGoddess,'Good morning... #REDy #smackdownlive #firstlady #poweroflove #wwe #messyhairdontcare https://t.co/4xW0dXmcZ1',0,"""@ApexPredatorRP's""",,,
56,889877820813357056,BeingKingDavid,"""@WWE @SamiZayn @MariaLKanellis @RealMikeBennett Why are @RealMikeBennett and @MariaLKanellis  even I'm\xe2\x80\xa6 https://t.co/QCm51QzX6W""",0,'',,,
57,889877173284347904,BaronCUpdates,'RT @JulieBragg: WWE Superstars ARE larger than life! Excited to meet @BaronCorbinWWE before #SmackDownLIVE in #RVA. #EOD #LoneWolf #WWE htt\xe2\x80\xa6',3,'',,,
58,889875822798139395,WWEFANGIRLHALEY,'RT @JulieBragg: WWE Superstars ARE larger than life! Excited to meet @BaronCorbinWWE before #SmackDownLIVE in #RVA. #EOD #LoneWolf #WWE htt\xe2\x80\xa6',3,"""I'm From Winnipeg You Idiot!""",49.895136,-97.13837439999999, Canada
59,889874813975633921,kmc4201992,"'RT @GentlemanJackG: Hello, Richmond. #SmackDownLIVE #205Live'",3,'Buffalo  NY',42.88644679999999,-78.8783689, USA
60,889874276140056576,GentlemanJackG,"'Hello, Richmond. #SmackDownLIVE #205Live'",3,'Manchester  England',53.4807593,-2.2426305, UK
61,889873989086195712,DeemaB_98,'When Will This Goddess Return :(  @RealPaigeWWE #WWE #RAW #SMACKDOWNLIVE https://t.co/beXVSzefuw',0,'Kingdom of Saudi Arabia',23.885942,45.079162,Saudi Arabia
62,889873651776057346,AztrixB99,'@ProWrestlingMag #fireroaddogg \n#WWE\n#SmackDownLIVE',0,'',,,
63,889873133901164545,OhSoMariaWebs,'RT @MariaLKanellis: Good Morning... #REDy #smackdownlive #keepingupwithkanellises #firstlady #poweroflove #treehat\xe2\x80\xa6 https://t.co/RwRsbSmaQA',8,'Brooklyn  NY',40.6781784,-73.9441579, USA
64,889872645424119809,wwehofbound,"""@WWE @MmmGorgeous @WWEFandango It's obviously @JohnCena. You can't see the attacker and you can't see him.\xe2\x80\xa6 https://t.co/1hKiv3uRbt""",0,'Wellington  Florida',26.6617635,-80.2683571, USA
65,889871827941699585,NickDiStefano2,"'Who needs #RAW when you have2Smackdown house shows, a Smackdown PPV &amp;get 2 watch #SmackdownLive tonight on tv all in a row!? @JerseyGirlLuv'",0,'Delaware  USA',38.9108325,-75.52766989999999, USA
66,889868482208256000,myskewedview,"""@REIGNSSEMPIRE Things haven't been right on #SmackDownLIVE since they took the belt off #AJStyles""",0,'Newport  KY',39.091449,-84.4957757, USA
67,889866295323353089,MariaKOnlineNet,'RT @MariaLKanellis: Good Morning... #REDy #smackdownlive #keepingupwithkanellises #firstlady #poweroflove #treehat\xe2\x80\xa6 https://t.co/RwRsbSmaQA',8,'admin@mariakonline.net',,,
68,889866173994741760,xcuzemytweets,"""@Wwegirl96 @NatbyNature Except for one thing, that's the Raw women's championship... and the lovely @NatbyNature is\xe2\x80\xa6 https://t.co/JszM3V2RBn""",0,'',,,
69,889863451673276417,JulieBragg,'WWE Superstars ARE larger than life! Excited to meet @BaronCorbinWWE before #SmackDownLIVE in #RVA. #EOD #LoneWolf\xe2\x80\xa6 https://t.co/gD0P3LCTEo',3,'Richmond  VA',37.5407246,-77.4360481, USA
70,889863441690877953,stevecook84,'RT @411mania: Cook\xe2\x80\x99s WWE BattleGround 2017 Report Card #WWE #WWEBattleground #SmackdownLive https://t.co/4wYgjoRuKl',1,'Commonwealth of Kentucky',37.8393332,-84.2700179, USA
71,889862828831772673,411mania,'Cook\xe2\x80\x99s WWE BattleGround 2017 Report Card #WWE #WWEBattleground #SmackdownLive https://t.co/4wYgjoRuKl',1,'',,,
72,889860836566716416,RichLatta32,'RT @OneNationRadio: #SmackDownLIVE \nLatta\xe2\x80\x99s Lariat #13 : WWE Battleground 2017 Review https://t.co/FTKA9wHGd8 via @socialsuplex',1,'Palm Harbor  FL',28.0780718,-82.7637127, USA
73,889859288998563842,julioWWEFAN,'Tonight  @WWE  #SmackDownLIVE',0,'',,,
74,889858248190328833,markgreenehim,'No shade but I can see @NaomiWWE saying this to @AlexaBliss_WWE \xf0\x9f\xa4\xa3\xf0\x9f\xa4\xa3 #feeltheglow #naomob #glowtime #SmackDownLIVE\xe2\x80\xa6 https://t.co/SlbjQgByY1',0,'North Carolina  USA',35.7595731,-79.01929969999999, USA
75,889858209644560385,sweta_mondal,"""@realellsworth @WWE @WWEDanielBryan Ohhhhh Pls !!U gotta be kidding me?!! We don't wanna c u On #sdlive #Ellsworthless \xf0\x9f\x98\x8f\xf0\x9f\x98\x92\xf0\x9f\x98\x95 #SmackdownLive""",0,'India',20.593684,78.96288,India
76,889857732223705088,KosareAashika,"""RT @WWEDanielBryan: Don't worry folks, next week after #SmackdownLive, @ReneeYoungWWE and I will host a pirate version of #TalkingSmack on\xe2\x80\xa6""",2074,'Madhya Pradesh  India',22.9734229,78.6568942, India
77,889855483317768192,Wayne_JClark,'RT @MariaLKanellis: Good Morning... #REDy #smackdownlive #keepingupwithkanellises #firstlady #poweroflove #treehat\xe2\x80\xa6 https://t.co/RwRsbSmaQA',8,'nl',53.1355091,-57.6604364, Canada
78,889854107955208194,DrDinkleman16,"""@NatbyNature You deserve to win the #SmackdownLive women's championship from @NaomiWWE""",0,'New York  USA',40.7127753,-74.0059728, USA
79,889853032795561984,TrylBear,'looking forward to watch @WWE #SmackDownLIVE',0,'Sacramento/SF/Vallejo',38.5815719,-121.4943996, USA
80,889852088515276800,blackbelt1998,'So honored that #NationalEllsworthDay also falls on my birthday!! Its a good day #WWE #SmackDownLIVE',0,'',,,
81,889851029113778176,Mobeen_Afzal17,"""RT @RealMickFoley: I have a little post up about how much I like @NaomiWWE's new #SmackDownLive #WomensChampionship title. #FeelTheGlow htt\xe2\x80\xa6""",152,'',,,
82,889850906828840960,HerKanellisWays,'Good Morning... #REDy #smackdownlive #firstlady https://t.co/F4nRYejjgW',0,'@HerRavishingWay Is MINE',,,
83,889850827535507456,TorontoPres31,"""Can't wait to see my girl, the undisputed 2x Ms MITB @CarmellaWWE on #SmackDownLIVE tonight!!! I've got the popcorn\xe2\x80\xa6 https://t.co/HqDEPudxX5""",1,'',,,
84,889850452958789632,Im_JeffStyles,"""@EmmaWWE this woman deserves a championship. I won't mind if she got both @WWE #Raw &amp; #SmackdownLive Women's Championship.""",0,'City of Angels',34.0522342,-118.2436849, USA
85,889850005242212352,BrokenRampaige,'RT @MariaLKanellis: Good Morning... #REDy #smackdownlive #keepingupwithkanellises #firstlady #poweroflove #treehat\xe2\x80\xa6 https://t.co/RwRsbSmaQA',8,'Milwaukee  WI',43.0389025,-87.9064736, USA
86,889849092918190080,gomezbiebxr,'Nia jax and Tamina deserve better #wwe #RAW #SmackDownLIVE #Battleground',0,'Greece Europe',39.074208,21.824312,Greece
87,889848471477465089,notlikedolan,"""RT @Belle_2_4: Going to #SmackDownLive next week\xf0\x9f\x98\x9d\xe2\x9d\xa4\xef\xb8\x8f I'm so excited to go\xf0\x9f\x98\x8d @WWE""",1,'Sandusky South  OH',41.413752,-82.68614459999999, USA
88,889848345707118594,Belle_2_4,"""Going to #SmackDownLive next week\xf0\x9f\x98\x9d\xe2\x9d\xa4\xef\xb8\x8f I'm so excited to go\xf0\x9f\x98\x8d @WWE""",1,'EDx1 EDGEx1 NAOMIx1 JAMESx1',,,
89,889845236897382401,OneNationRadio,'#SmackDownLIVE \nLatta\xe2\x80\x99s Lariat #13 : WWE Battleground 2017 Review https://t.co/FTKA9wHGd8 via @socialsuplex',1,'Tampa Bay Area  Florida',27.763383,-82.5436722, USA
90,889842544372314112,KADAJ757,"""RT @KrystinaLeex2: William woke up at 6am asking if it was time to leave for #SmackDownLIVE he's now walking around humming all the entranc\xe2\x80\xa6""",1,'Newport News  VA',37.0870821,-76.4730122, USA
91,889841752097607685,mtbrx,'RT @gprcast: #MayweatherVsMcGregor #rockyIII #thunderlips #rocky #wwe #mayweather #mcgregor #wweraw #smackdownlive #gprcast https://t.co/cZ\xe2\x80\xa6',1,'',,,
92,889840986658152450,BossmanCassista,'#suitgroup expansion #wwe #raw #smackdownlive @WWECesaro @HeymanHustle @WWEDanielBryan @OfficialSting\xe2\x80\xa6 https://t.co/hY6lzFsHmz',0,'crusin4caylee.weebly.com',,,
93,889840689705615360,ApacheZack,'Tonight tonight tonight #SmackdownLive \nhttps://t.co/5HQIFRJwhK',0,'Virginia',37.4315734,-78.6568942, USA
94,889840335991390210,viperthe89,"'RT @RandyOrton: Had fun in Thailand, now time to go to prison #punjabiprisonmatch #smackdownlive https://t.co/EgyZ75cZB7'",214,'',,,
95,889838059021271040,JuilianEA43,'RT @TeamAwesome418: The 4th of July sure gave us fireworks on #SmackDownLIVE Courtesy of #WWE &amp; #SDLive https://t.co/LeQAoFCbEq #TheUsos #T\xe2\x80\xa6',5,'',,,
96,889837999864893441,TripleDaGOD,'#PunjabiPrison @TripleDaGOD #SpeaksOn @WWE #SmackDownLIVE Presents #WWEBattleground! #EliminationMatch #FlagMatch https://t.co/Sw1DLmjcdO',0,'Zenovia Island  Manhattan  NY',40.795813,-73.922517, USA
97,889837411647336449,realbarrywolf,'https://t.co/SRfry2ziHN #best #gear on the #market #soft #cloud #wwe #raw #SmackDownLIVE #roh #wrestling\xe2\x80\xa6 https://t.co/kLUnWu7nkt',0,'Free State of Jones',31.5343241,-89.1705998, USA
98,889835941619171330,ritvek,'I knew I would find this! Same thoughts exactly. @JinderMahal is the champ! :P #WWEBattleground #SmackDownLIVE Good\xe2\x80\xa6 https://t.co/9aCvmoHOSo',0,'Pennsylvania',41.2033216,-77.1945247, USA
99,889835270832574466,n_hussnain,"'""@MariaLKanellis: Good Morning... #REDy #smackdownlive #keepingupwithkanellises #firstlady #poweroflove #treehat\xe2\x80\xa6 https://t.co/mUMTlg23sk""'",0,'',,,
100,889833221080449025,sicantdihar1989,'RT @Karenogden11: I win \xf0\x9f\x98\x82\xf0\x9f\x98\x82\xf0\x9f\x98\x82 #SmackDownLIVE https://t.co/vSmQagyJGB',1,'',,,
101,889832628131569664,411mania,"'The Right, Wrong and Ridiculous of WWE Smackdown #WWE #SmackdownLive #SDLive https://t.co/FwYRzABvOL'",0,'',,,
102,889831975170846720,KrystinaLeex2,"""William woke up at 6am asking if it was time to leave for #SmackDownLIVE he's now walking around humming all the entrance music #isit7yet""",1,'',,,
103,889830171087429633,DaRealPatrickP,"'#WWE,#Raw,#WweRaw,#SDLIVE,#SMACKDOWNLIVE,#WWESMACKDOWNLIVE,#SmackDownLIVE,#wwesmackdown,#WWEUniverse https://t.co/pLExEaSQcC'",0,'Bath NY',42.3370164,-77.31775770000002, USA
104,889827338887634944,CT72085,'looking forward to watch @WWE205Live &amp; @WWE #SmackDownLIVE',0,'Bay Area  CA',37.8271784,-122.2913078, USA
105,889826366434291712,Carlos_Banks_,'RT @MariaLKanellis: Good Morning... #REDy #smackdownlive #keepingupwithkanellises #firstlady #poweroflove #treehat\xe2\x80\xa6 https://t.co/RwRsbSmaQA',8,'Salamanca  Espa\xc3\xb1a',40.9701039,-5.663539699999999, Spain
106,889825012563283968,PkgPileDriver,'#SmackDownLIVE Breaking News: Teddy Long to be revealed as @WWEGable father! \xf0\x9f\x98\x81',0,'Boca Raton  Florida',26.3683064,-80.1289321, USA
107,889824596026957824,PkgPileDriver,"""#SmackDownLIVE What's terrible, is now we're guaranteed to get a tag match between Jinder and Khali vs Cena and whoever helps him.""",0,'Boca Raton  Florida',26.3683064,-80.1289321, USA
108,889823780083773441,cenasflair,'two weeks until #SmackDownLIVE \xf0\x9f\x99\x8c\xf0\x9f\x8f\xbb',0,'',,,
109,889823759577878528,SportsFreaksCht,'@WWE @EmmaWWE @NiaJaxWWE JJordan just went over to Raw for?\n\n#WWEUniverse ... What do you think?@EmmaWWE for\xe2\x80\xa6 https://t.co/876i2aDpFB',0,'',,,
110,889823347579658240,jcjeff75,'RT @BladeValak: Funny how @WWE #SmackDownLive gives every woman a opportunity but #RAW keeps the title in the same circle. #SummerSlam',1,'jamaica queens  ny',40.702677,-73.7889689, USA
111,889823209524269056,121875Raywwe1,'Starting My #SmackDownLIVE Tuesday Morning Off Like The #LassKicker @BeckyLynchWWE #StraightFire https://t.co/PYlQGQmMZ7',0,'Any Where But Here',47.845864,-122.2931649, United States
112,889822642596958211,clane1213,"""@MsCharlotteWWE Will you be in #SmackDownLive tonight? Can't wait to see you!""",0,'',,,
113,889822355719114759,SportsFreaksCht,'@LolaBlahnicks09 @WWE @EmmaWWE @NiaJaxWWE Trade @EmmaWWE 4 @JasonJordanJJ... #RAW just got #SonOfAngle 4 nothing...\xe2\x80\xa6 https://t.co/D4cKQVRuvm',0,'',,,
114,889822025107333120,amazing_j2698,'Will record #Smackdownlive tonight',0,'South Carolina  USA',33.836081,-81.1637245, USA
115,889819310851584001,MariaLKanellis,'Good Morning... #REDy #smackdownlive #keepingupwithkanellises #firstlady #poweroflove #treehat\xe2\x80\xa6 https://t.co/RwRsbSmaQA',8,'Ottawa  IL',41.3455892,-88.8425769, USA
116,889817209262026753,EugeneDaponti,"""RT @RealMickFoley: I have a little post up about how much I like @NaomiWWE's new #SmackDownLive #WomensChampionship title. #FeelTheGlow htt\xe2\x80\xa6""",152,'Puerto Rico  USA',40.6985469,-73.9753052, USA
117,889812416971845635,ProwrestlingRe1,'Who is Watching @WWESmackDown Live Tonight?  #wweSmackDownLive #wwe #SmackDownLive #SDLive',0,'Philadelphia  PA',39.9525839,-75.1652215, USA
118,889811429649514496,RealMrDedicated,"""there won't be a #SmackDownLIVE title match at #summerslam2017 going to be a tag match #RandyOrton #JohnCena vs #TheGreatKhali #jindermahal""",0,'Buffalo  NY',42.88644679999999,-78.8783689, USA
119,889802667744210944,MelansonLeonard,'RT @411wrestling: Brock Lesnar vs. Samoa Joe Set For Smackdown Live Shows #BrockLesnar #SamoaJoe #SmackdownLive #WWE https://t.co/LVBJhVslM\xe2\x80\xa6',2,'',,,
120,889802106600734720,TimYingling,"'#WWEBattleground2017 was little more than a letdown, if that. https://t.co/bPN6LXXh9m\n#SmackdownLive @RandyOrton @JinderMahal'",0,'',,,
121,889794729386401792,Priscil15622851,'RT @sayantan_das_25: Fabulous payperview #Battleground2017 \n#SmackDownLIVE #JindervsOrton #CenavsRussev #AJvsOwens totally rocked it #Shane\xe2\x80\xa6',1,'',,,
122,889792895800287233,_sashastan,'RT @Sagardarasingh: #GiveEmmaAChance  ohh come @WWE  its about time\nSend her to #SmackdownLive atleast.\n#EmmaForChamp',1,'',,,
123,889792165811023873,plavpabafir1973,'RT @khushk_sarwan: If @WWERomanReigns is Raw so I m with Raw best if luck Roman... Raw Rocks.... #SmackDownLive #Raw  #WWEDraft',7,'',,,
124,889792115302998016,AjfreakinHardy,"'RT @lightning_kf: Even with Snoring Boring on the roster, #SmackDownLIVE was great.\nMy God, what have they done to this show? https://t.co/\xe2\x80\xa6'",1,'Sydney  New South Wales',-33.8688197,151.2092955, Australia
125,889790358372175872,MirzoBotir,'@NatbyNature @MogyApp Next #SmackDownLIVE womens champion .',0,'Uzbekistan',41.377491,64.585262,Uzbekistan
126,889789927398965248,wwetalktm,'RT @411wrestling: Cook\xe2\x80\x99s WWE BattleGround 2017 Report Card #WWE #WWEBattleground #SmackdownLive https://t.co/raE7ir2xJs https://t.co/sdOoMy\xe2\x80\xa6',2,'WorldWide',36.249758,-95.266826, United States
127,889785633044021249,chawanbahd,'@WWE #SmackDownLive I Love The WWE World Wrestling Entertainment',0,'Yuba City California',39.1404477,-121.6169108, USA
128,889783409240936448,PatrickXBoneX83,"""Since #WWEBattleground I can't get this Song out of my head https://t.co/tFG5OE45vd \xf0\x9f\x8e\xa7 #SmackDownLIVE""",0,'Braunschweig  Deutschland',52.2688736,10.5267696, Germany
129,889782439119278080,Sagardarasingh,'#GiveEmmaAChance  ohh come @WWE  its about time\nSend her to #SmackdownLive atleast.\n#EmmaForChamp',1,'',,,
130,889782055139233792,lightning_kf,"'Even with Snoring Boring on the roster, #SmackDownLIVE was great.\nMy God, what have they done to this show? https://t.co/nrYspbwh5V'",1,'Barbados',13.193887,-59.543198,Barbados
131,889780315505516544,JackCam67074080,'RT @thiagopinzon16: Tonight #SmackDownLIVE only in USA',8,'',,,
132,889778790028759040,DecayShipp,"""@NatbyNature Congrats on your win at #WWEBattleground the new #1 Contender for the #SmackDownLIVE women's champions\xe2\x80\xa6 https://t.co/kRUilh9Kvc""",0,'',,,
133,889778016448122880,LWM3g24gQzA8HMk,'RT @AlexaBliss_WWE: Five Feet of Fury \xf0\x9f\x96\x90\xf0\x9f\x8f\xbb NOW AVAILABLE @WWEShop  \xf0\x9f\x98\x88 #WWE #smackdownlive #blissfit #SDLive #blissdoff https://t.co/Isa3Snwcnp',926,'',,,
134,889776838750478338,NA2DfQzllaIWW8I,"'RT @WWEUniverse: The #WWEChampionship is coming to #SmackDownLive, and @ShaneMcMahon &amp; @WWEDanielBryan are ecstatic! #WWEBattleground https\xe2\x80\xa6'",1872,'',,,
135,889776550341640192,Cloudylj20xp,'#polls #poll #RAW  #SmackDownLIVE  who do u believe would win in a match The Great Khali or Braun Strowman',0,'United States',37.09024,-95.712891,United States
136,889772678487388160,SabReckless,'Tuesday of #SmackdownLive \nheelziggler #kevinowens @baroncorbinwwe \n.\n.\n.\n.\n.\n.\n.\n.\n.\n.\n#wwe\xe2\x80\xa6 https://t.co/8khMOVuZJk',0,'Chile',-35.675147,-71.542969,Chile
137,889772591677931520,LovieShahani,"'RT @Wikkie_Leaks_In: #WWEChampionship #WWEBattleground #RAW #SmackdownLive show #India in poor light by ""showing"" that \xf0\x9f\x98\x8eJinder won by help\xe2\x80\xa6'",4,'Ulhasnagar  India',19.2215115,73.1644628, India
138,889772581691301889,junior87_luiz,"""RT @brittanya187187: Don't miss my NUDE \xe2\x9d\x8c\xe2\x9d\x8c\xe2\x9d\x8c content at https://t.co/5mRqhfnGNA \xf0\x9f\x91\x85\xf0\x9f\x92\xa6 #SmackdownLive https://t.co/vkfABj9NtH""",62,'sao paulo  Brazil',-23.5505199,-46.63330939999999, Brazil
139,889763758012219392,StevilFTW,"'Wtf, #Raw gets Renee and Charly\xe2\x80\xa6 while #SmackdownLive has that robot interviewer? Piss off'",0,'',,,
140,889750771348250624,dbehan79,'I will be watching #SmackDownLIVE today at 8:00pm est in Canada on @Twitter',0,'North York Ontarip canada',43.7615377,-79.41107939999999, Canada
141,889748480003981312,4eversupafly,"""RT @RealMickFoley: I have a little post up about how much I like @NaomiWWE's new #SmackDownLive #WomensChampionship title. #FeelTheGlow htt\xe2\x80\xa6""",152,'Las Cruces  NM',32.3199396,-106.7636538, USA
142,889748395555831808,HeyMixer5SOSWWE,'\xe2\x9d\x8c #natalya #sashabanks #wwe #wwesuperstars #raw #smackdown #smackdownlive #sdlive #totaldivas\xe2\x80\xa6 https://t.co/3EH4oJF1UF',0,'IG wwe_nxt_addict',,,
143,889747911201832961,HeyMixer5SOSWWE,'\xf0\x9f\x92\x8b#lana #smackdown #smackdownlive #sdlive #totaldivas #wwe #wwesuperstar #lanasquad\xe2\x80\xa6 https://t.co/7mbpWVK2qz',0,'IG wwe_nxt_addict',,,
144,889747052992790529,HeyMixer5SOSWWE,'\xf0\x9f\x92\x9a#naomi #smackdown #smackdownlive #sdlive #totaldivas #wwe #wwesuperstar #naomob #slayomi\xe2\x80\xa6 https://t.co/cEr2OgR3Qs',0,'IG wwe_nxt_addict',,,
145,889746831353290752,HeyMixer5SOSWWE,'\xf0\x9f\x87\xa8\xf0\x9f\x87\xa6#reneeyoung #smackdown #smackdownlive #sdlive #totaldivas #wwe #wwesuperstar #talkingsmack\xe2\x80\xa6 https://t.co/DIt60v2aYR',0,'IG wwe_nxt_addict',,,
146,889745490782429185,HeyMixer5SOSWWE,'\xf0\x9f\x92\x94#natalya #smackdown #smackdownlive #sdlive #totaldivas #wwe #wwesuperstar #natalyawwe\xe2\x80\xa6 https://t.co/g8xLAuUr37',0,'IG wwe_nxt_addict',,,
147,889743904731389952,JeromeNonyane,'I always have to PVR wrestling. Late to the party on #MondayNightRAW raw and #smackdownlive',0,'Vancity',49.28638489999999,-123.1148181, Canada
148,889734942963400705,Kushinski_,"""RT @WWEDanielBryan: Don't worry folks, next week after #SmackdownLive, @ReneeYoungWWE and I will host a pirate version of #TalkingSmack on\xe2\x80\xa6""",2074,'Neither here nor there',,,
149,889734936353280000,Kushinski_,"""RT @WWEDanielBryan: Don't worry, son, you'll find out who your REAL father is next week on #SmackdownLive... oh wait, did I give it away by\xe2\x80\xa6""",4461,'Neither here nor there',,,
150,889734452246609920,HectoriousPerez,"""Charlotte should just go back to #Raw . There's nothing for her on #SmackDownLIVE""",0,'Pleasant Grove  UTAH',40.3641184,-111.73854, USA
151,889733791081787392,AandK30,'RT @WallaceReviews: #WWEBattleground #WWE #SmackDownLIVE #SummerSlam #RAW #twitter #sunday  https://t.co/pN7BTk6VA2',1,'Scotland',56.49067119999999,-4.2026458, UK
152,889733189073346567,1inRicC0ntrCyLM,'RT @alex_moore360: #SmackDownLIVE  excited about the possibilities of the new number one contender',11,'',,,
153,889732614004670464,HeyMixer5SOSWWE,'\xe2\x9d\x8c #natalya #naomi #wwe #wwesuperstars #totaldivas #smackdown #smackdownlive #sdlive\xe2\x80\xa6 https://t.co/pV5FvX2cma',0,'IG wwe_nxt_addict',,,
154,889732257975603200,en4I5Qdz9FafryA,"""RT @Prabudda: Daaamn, never thought I'd hear @urltv references on #SmackDownLIVE #battlerap""",1,'',,,
155,889731306497724418,JamieOconnell24,"""Can't sleep so going to watch #WWEBattleground over again! #SmackDownLive""",0,'',,,
156,889730710403239937,mka1090,"""RT @RealMickFoley: I have a little post up about how much I like @NaomiWWE's new #SmackDownLive #WomensChampionship title. #FeelTheGlow htt\xe2\x80\xa6""",152,'',,,
157,889730058063142912,josemakhubs,"""RT @RealMickFoley: I have a little post up about how much I like @NaomiWWE's new #SmackDownLive #WomensChampionship title. #FeelTheGlow htt\xe2\x80\xa6""",152,'Soshanguve  South Africa',-25.483403,28.1068267, South Africa
158,889729579241291776,HeyMixer5SOSWWE,'\xe2\x9d\x8c #natalya #charlotteflair #wwe #wwesuperstars #smackdown #smackdownlive #sdlive\xe2\x80\xa6 https://t.co/07S0j9hHlB',0,'IG wwe_nxt_addict',,,
159,889726221101264896,WWERamsey,"""RT @RumblingRumors: Great Khali's Future and His Role in WWE.\n\nhttps://t.co/1AO3V1uqA9\n\n#WWE #RAW #THEGREATKHALI #SMACKDOWNLIVE  #JINDERMAH\xe2\x80\xa6""",1,'Center of The Ring',,,
160,889722302719545344,AiganaeE,"""RT @RealMickFoley: I have a little post up about how much I like @NaomiWWE's new #SmackDownLive #WomensChampionship title. #FeelTheGlow htt\xe2\x80\xa6""",152,'St Louis  MO / Houston',38.6376907,-90.2654519, USA
161,889721572042436608,GTSPipeBomb,'RT @kered316: @BustedOpenRadio @ShinsukeN @FinnBalor I think @FinnBalor needs to go to #SmackDownLIVE along with #TheClub',1,'Queens  N.Y.',40.7282239,-73.7948516, USA
162,889719493072740354,TyeWilliams31,"""RT @RealMickFoley: I have a little post up about how much I like @NaomiWWE's new #SmackDownLive #WomensChampionship title. #FeelTheGlow htt\xe2\x80\xa6""",152,'Tallahassee  FL',30.4382559,-84.28073289999999, USA
163,889719327561306113,FettyWapArmy,'#SmackDownLIVE matches at @SummerSlam \nJinder Mahal vs John Cena for the WWE championship. \nRandy Orton vs The Great Khali',0,'Ashtadir forever and always \xf0\x9f\x92\x91',,,
164,889719326877659136,Bernade40350422,'RT @411wrestling: Cook\xe2\x80\x99s WWE BattleGround 2017 Report Card #WWE #WWEBattleground #SmackdownLive https://t.co/raE7ir2xJs https://t.co/sdOoMy\xe2\x80\xa6',2,'Pennsylvania  USA',41.2033216,-77.1945247, USA
165,889714898954895361,MacGyver3160,'@WWE @WWERollins Only good storylines on #RAW are the Univeral Title &amp; Hardy Boyz @JEFFHARDYBRAND @MATTHARDYBRAND\xe2\x80\xa6 https://t.co/V6DEAIMdC3',0,'Parts Unknown',32.754119,-97.33248200000001, USA
166,889711612394954753,costume_poet,"'Day one down with #RAWDC, tomorrow on to Richmond for #SmackDownLIVE then a wait for Saturday for #ROH \xf0\x9f\xa4\x98\xf0\x9f\x8f\xbb\xf0\x9f\xa4\x98\xf0\x9f\x8f\xbb\xf0\x9f\xa4\x98\xf0\x9f\x8f\xbb this\xe2\x80\xa6 https://t.co/VIZvtPcjQm'",0,'Mordor  Middle Earth',47.7097431,-122.1911299, USA
167,889708919798366208,GnasherBanks,"""I can't wait until she becomes #SmackdownLive #WomensChampion @MsCharlotteWWE https://t.co/kV2GSb489G""",0,'',,,
168,889706671160803334,jennifer_makus,'#FireRoadDogg  I want #SmackdownLive of 2016 back',0,'canada',56.130366,-106.346771,Canada
169,889706085547884544,kekoa430,'@EmmaWWE you should be on #SmackdownLive @WWEDanielBryan make this happen #LandofOpportunity',0,'',,,
170,889705651945033728,uchiha_senseiYT,"""RT @RealMickFoley: I have a little post up about how much I like @NaomiWWE's new #SmackDownLive #WomensChampionship title. #FeelTheGlow htt\xe2\x80\xa6""",152,'en tu mente',,,
171,889705541248962560,xkennyomegamanx,'Seeing @ReneeYoungWWE on #RAW and #SmackDownLIVE always makes me smile! \xe2\x9d\xa4',0,'Mount Carmel  PA',40.7970312,-76.41189609999999, USA
172,889704086731452416,GreatWWEDebate,'Updated #WWESummerSlam Card Presented By #Raw and #SmackDownLive \n\nRaw Matches \n\n#Fatal4Way for the... https://t.co/9Gpftt7sID',0,'',,,
173,889702884589408260,IrenaHagan3,"""@stange_richard NO LET HIM COME TOO RAW HE'S NOT STAYING ON #SMACKDOWNLIVE ANYWAYS HE CAN COME TO RAW""",0,'Indianapolis  IN',39.768403,-86.158068, USA
174,889702209402748928,411wrestling,"'The Right, Wrong and Ridiculous of WWE Smackdown #WWE #SmackdownLive #SDLive https://t.co/Z8Z4BtGMFi https://t.co/LhWYrZAKKK'",0,'',,,
175,889702130784899072,halibelfan,'i cant wait to see @BeckyLynchWWE  on #smackDownLIVE  tomorrow',0,'',,,
176,889701819907059716,411wrestling,'Cook\xe2\x80\x99s WWE BattleGround 2017 Report Card #WWE #WWEBattleground #SmackdownLive https://t.co/raE7ir2xJs https://t.co/sdOoMyXl1g',2,'',,,
177,889698983240663040,AnitaKDongrez,"'RT @Wikkie_Leaks_In: #WWEChampionship #WWEBattleground #RAW #SmackdownLive show #India in poor light by ""showing"" that \xf0\x9f\x98\x8eJinder won by help\xe2\x80\xa6'",4,'Fort Area  Mumbai',18.9352599,72.8371511, India
178,889695571732312065,MostDopePatsFan,'RT @zathomas1930: #SmackDownLIVE step your game up! LOL',1,'New Jersey',40.0583238,-74.4056612, USA
179,889690386976919552,LyssaCaat,'Going to #SmackdownLive tomorrow in #RVA - what should my banner say? (Luke Harper and Shinsuke Nakamura are my favs) #WWE',0,'',,,
180,889688280475815937,jimandrade01,"""@Wwegirl2492 @DanaBrookeWWE @RealSummerWWE @AliciaFoxy @EmmaWWE @MickieJames That's # Raw for you. If they want to\xe2\x80\xa6 https://t.co/Paj1O5cDlE""",0,'',,,
181,889687189503840256,tharealCUPCAKE,"""RT @RealMickFoley: I have a little post up about how much I like @NaomiWWE's new #SmackDownLive #WomensChampionship title. #FeelTheGlow htt\xe2\x80\xa6""",152,'Twentynine Palms  CA',34.1355582,-116.0541689, USA
182,889686469115338753,WallaceReviews,'#WWEBattleground #WWE #SmackDownLIVE #SummerSlam #RAW #twitter #sunday  https://t.co/pN7BTk6VA2',1,'Cumbernauld  Scotland',55.945668,-3.992534, UK
183,889684573768036352,dakotaryankeel1,'@RealKurtAngle  @StephMcMahon  raw sucked wwe will never learn to give us fans what we want #SmackDownLIVE is better 100%',0,'',,,
184,889684324982935552,ccookstar1218,"'@BellaTwins @JohnCena I know you do Nikki but there is some good news, @WWE #SmackDownLIVE will be in my hometown t\xe2\x80\xa6 https://t.co/T3JnyRQBPd'",0,'Richmond  VA',37.5407246,-77.4360481, USA
185,889683580389122048,ccookstar1218,'Loved @WWE #RAW tonight on @USA_Network good show and main event A+ #SmackDownLIVE is in my hometown tomorrow can they keep up?',0,'Richmond  VA',37.5407246,-77.4360481, USA
186,889682763472941056,HarshaCherry315,'Vengeance is waiting for u viper\n#RandyOrton  #SmackDownLIVE https://t.co/O6OKwQcdNF',0,'',,,
187,889682367199227904,DaRealPatrickP,"'#WWE,#Raw,#WweRaw,#SDLIVE,#SMACKDOWNLIVE,#WWESMACKDOWNLIVE,#SmackDownLIVE,#wwesmackdown,#WWEUniverse https://t.co/vw8ho19Xur'",0,'Bath NY',42.3370164,-77.31775770000002, USA
188,889682211489886209,jimmythekid28,'#wwe #raw #SmackDownLIVE #mitb #Wrestlemania #triple h',0,'Louisiana  USA',30.9842977,-91.96233269999999, USA
189,889681113119117312,ashleynyoka,"""RT @Jennaaayyy: Both Women's title matches currently set for #SummerSlam are severely underwhelming. #RAW #SmackdownLive""",1,'',,,
190,889678950527619072,DaRealPatrickP,"'Booker steeling Austins phrase !!!\n #WWE,#Raw,#WweRaw,#SDLIVE,#SMACKDOWNLIVE,#WWESMACKDOWNLIVE,#SmackDownLIVE,#wwesmackdown,#WWEUniverse'",0,'Bath NY',42.3370164,-77.31775770000002, USA
191,889676300390150145,DaRealPatrickP,"'Roman pls show up to this 3 on 2 !!\n #WWE,#Raw,#WweRaw,#SDLIVE,#SMACKDOWNLIVE,#WWESMACKDOWNLIVE,#SmackDownLIVE,#wwesmackdown,#WWEUniverse'",0,'Bath NY',42.3370164,-77.31775770000002, USA
192,889675830678433792,ProwrestlingRe1,'Who is Watching @WWESmackDown Live Tomorrow Night? #wweSmackDownLive #wwe #SmackDownLive #SDLive',0,'Philadelphia  PA',39.9525839,-75.1652215, USA
193,889675664579801088,DaRealPatrickP,"'Are Hardyz fixed now !?!?!\n #WWE,#Raw,#WweRaw,#SDLIVE,#SMACKDOWNLIVE,#WWESMACKDOWNLIVE,#SmackDownLIVE,#wwesmackdown,#WWEUniverse'",0,'Bath NY',42.3370164,-77.31775770000002, USA
194,889675419754143745,RachelDee8,'Ivory Shoots on Chyna https://t.co/cSJHTKOI32 #Ivory #Chyna #wwediva #wwewomenstitle #wwe #wwe #mondaynightraw #smackdownlive',0,'',,,
195,889674641178021888,TacoTim1,'RT @411wrestling: Brock Lesnar vs. Samoa Joe Set For Smackdown Live Shows #BrockLesnar #SamoaJoe #SmackdownLive #WWE https://t.co/LVBJhVslM\xe2\x80\xa6',2,'Jonesboro  AR',35.84229670000001,-90.704279, USA
196,889673401777897472,411mania,'Brock Lesnar vs. Samoa Joe Set For Smackdown Live Shows #BrockLesnar #SamoaJoe #SmackdownLive #WWE https://t.co/LfyhcBXxqN',0,'',,,
197,889673264494026753,411wrestling,'Brock Lesnar vs. Samoa Joe Set For Smackdown Live Shows #BrockLesnar #SamoaJoe #SmackdownLive #WWE\xe2\x80\xa6 https://t.co/Sq4LLKX6uD',2,'',,,
198,889672903360466944,EliRobertMyers1,"'I would love to see @AriyaDaivariWWE go to #SmackDownLIVE to join the Maha Tribe with @JinderMahal , The Great Khali and the Singh Brothers'",0,'Winona  MN',44.0553908,-91.6663523, USA
199,889672856925335553,hakesaw,'So. @JohnCena visited my office today. Good talks about wrestling and acting. Agreed to let me take this pic.\xe2\x80\xa6 https://t.co/UvC77cwGt3',0,'',,,
200,889670694862290944,Gigaleo78,"""In kayfabe,why is Jason Jordon just allowed to be on #WWE  #RAW?His contract with #SmackDownLIVE wasn't up.Kurt didn't trade 3-1 to get him.""",0,'West New York',,,
201,889670650779979776,AvaBaudelaire,"""RT @RealMickFoley: I have a little post up about how much I like @NaomiWWE's new #SmackDownLive #WomensChampionship title. #FeelTheGlow htt\xe2\x80\xa6""",152,'',,,
202,889670564029186048,Jennaaayyy,"""Both Women's title matches currently set for #SummerSlam are severely underwhelming. #RAW #SmackdownLive""",1,'Australia',,,
203,889669310741966852,RachelDee8,'JBL shoots on The Miz and Alberto Del Rio copying him https://t.co/E36aT2bR9R #JBL#TheMiz #AlbertoDelRio #smackdownlive #bradshaw',0,'',,,
204,889669089072951297,AliyahSings,"""I haven't watched #Raw or #SmackDownLIVE in over a month probably- but I prefer old school.. so I'll be on the @WWENetwork if you need me\xf0\x9f\x98\x82\xf0\x9f\x98\x82""",0,'Arkansas  USA',,,
205,889668784209920001,Edward_Riley0,'Which match are you looking forward to the most im going with Smackdown #SummerSlam #SmackDownLIVE #WWERAW #SDLive #RAW',0,'Cahokia  IL',,,
206,889668779470442501,RachelDee8,'Lance Storm shoots on Triple H burying Scott Steiner https://t.co/uamWNxEtLe  #LanceStorm #TripleH #ScottSteiner #wcw #wwe #smackdownlive',0,'',,,
207,889668664391331840,DaRealPatrickP,"""I hope Hawkins wins, won't happen  !!\n #WWE,#Raw,#WweRaw,#SDLIVE,#SMACKDOWNLIVE,#WWESMACKDOWNLIVE,#SmackDownLIVE,#wwesmackdown,#WWEUniverse""",0,'Bath NY',,,
208,889668419993444354,Ghad0sh15,'Strowman is more tenderness then Corbin.\n\n#RAW #SmackDownLIVE https://t.co/7d2phQt10U',0,'United Kingdom \xe2\x88\x9e',,,
209,889668410279432192,DerickWormsley,'I get to see @ReneeYoungWWE on #WWEBattleground  #wweraw #SmackDownLIVE and as a bonus #TableFor3 tonight. Best start to the week ever',0,'Mohawk  NY',,,
210,889667649365565440,DaRealPatrickP,"'Has the crowd been this alive yet ?\n #WWE,#Raw,#WweRaw,#SDLIVE,#SMACKDOWNLIVE,#WWESMACKDOWNLIVE,#SmackDownLIVE,#wwesmackdown,#WWEUniverse'",0,'Bath NY',,,
211,889666145183301633,Djsyland,'Agreed. I just want the 4 Horsewomen back together #RAW #SDLive #SmackdownLive #WWE',0,'Somewhere in Between',,,
212,889665290275082240,DaRealPatrickP,"'#WWE,#Raw,#WweRaw,#SDLIVE,#SMACKDOWNLIVE,#WWESMACKDOWNLIVE,#SmackDownLIVE,#wwesmackdown,#WWEUniverse https://t.co/nqUyLdGDEE'",0,'Bath NY',,,
213,889664907100205056,BladeValak,'Funny how @WWE #SmackDownLive gives every woman a opportunity but #RAW keeps the title in the same circle. #SummerSlam',1,'Carcer City',,,
214,889664742993866752,RachelDee8,'Kevin Sullivan shoots on Rick Steiner Returning to #WWE https://t.co/Lr9i3CopjG #KevinSullivan #RickSteiner #smackdownlive',0,'',,,
215,889664039634259969,AdrianaValdezC,"""@ReneeYoung_Com So that means we'll have more @ReneeYoungWWE every week? #RAW #SMACKDOWNLIVE \xf0\x9f\x92\x97\xf0\x9f\x99\x8c\xf0\x9f\x8f\xbb""",0,'Las Vegas  NV',,,
216,889662522764255232,nahtanoj8,'@EmmaWWE deserves better So much forthe #WomensRevolution on #RAW   @TripleH #SmackDownLIVE is killing it with the women #GiveEmmaAChance',0,'Trinidad and Tobago',,,
217,889662374789210112,MattMaybray,"""Now I understand why they didn't give Jason Jordan mic time on #SmackDownLIVE. #MondayNightRAW""",0,'Drexel Hill  PA',,,
218,889662367059017728,Amazingshot22,'@realellsworth It will be great to see you back on #SmackDownLIVE',0,'West Virginia',,,
219,889660154391781381,nahtanoj8,'@WWEDanielBryan @shanemcmahon Please bring @EmmaWWE to #SmackDownLIVE #WWE #GiveEmmaAChance #BringEmma2Smackdown',0,'Trinidad and Tobago',,,
220,889659796969967620,DaRealPatrickP,"'LMFAO at Cole saying rehurt !!\n #WWE,#Raw,#WweRaw,#SDLIVE,#SMACKDOWNLIVE,#WWESMACKDOWNLIVE,#SmackDownLIVE,#wwesmackdown,#WWEUniverse'",0,'Bath NY',,,
221,889659769082052612,goodfella8711,"""@RachelCowell It's different for these days, would be sweet if he had representatives in each division #raw #SmackDownLIVE #nXt #205live""",0,'Pittsburgh  PA',,,
222,889658914370924545,INDYFANONE,'Thinking of staying the night in Montreal after @IWSHardcore before heading to #SmackDownLIVE in Ottawa.',0,'',,,
223,889658308575055872,WestSteffan,'#SmackDownLIVE  the usos need a handcap match  vs the new day for the smackdown tag team titles',0,'Buford  GA',,,
224,889657504107556865,Edward_Riley0,'Please move Emma to #SmackdownLive #WweRaw',0,'Cahokia  IL',,,
225,889657134354493442,RachelDee8,'#RandyOrton shoots on #KellyKelly sleeping with wrestlers https://t.co/ao1HOz5XA7 #raw #smackdownlive #orton',0,'',,,
226,889656138022760450,kered316,'@BustedOpenRadio @ShinsukeN @FinnBalor I think @FinnBalor needs to go to #SmackDownLIVE along with #TheClub',1,'',,,
227,889656091545661443,RachelDee8,'Bradshaw Shoots on Being a Bully and Donald Trump https://t.co/HVVbVmV8U7 #Bradshaw #Bully #DonaldTrump #wwe #jbl #smackdownlive',0,'',,,
228,889655975300431872,Ramy0204,'Still excited about the return of great khali #SmackDownLIVE #Battleground',0,'',,,
229,889655604238745600,RachelDee8,'Kevin Nash Shoots on Rick Rude buying his first car  https://t.co/ln799XbZyB #KevinNash #RickRude #firstcar #wwe #wcw #raw #smackdownlive',0,'',,,
230,889655555081596928,whitley_dw,'Thanks WWE for reminding me that The Great Khali is back. Thanks so much... #RAW #SmackDownLIVE https://t.co/x9nLdunS7u',0,'Suddenly Dead in Colorado',,,
231,889655423971840000,RealZayBolt,"""Why is @ReneeYoungWWE on #RAW ?, isn't she on #SmackDownLIVE ?, or did she get traded to #RAW ? please explain!""",0,'',,,
232,889654984106803202,DaRealPatrickP,"'Add Roman &amp; make it Shield VS the Miz and the other two. \n\n#WWE,#Raw,#WweRaw,#SDLIVE,#SMACKDOWNLIVE,#WWESMACKDOWNLIVE,#SMACKDOWN'",0,'Bath NY',,,
233,889654838459584513,itsgleyshi,"""RT @RealMickFoley: I have a little post up about how much I like @NaomiWWE's new #SmackDownLive #WomensChampionship title. #FeelTheGlow htt\xe2\x80\xa6""",152,'Manila City  National Capital',,,
234,889654830574252032,wildworks,"'I thought @ReneeYoungWWE was #SmackdownLive only? Are you a ""free agent"" like John Cena? ;) #Raw'",0,'Ottawa  Canada',,,
235,889654755949256705,Jacob2502,"'This Enzo/Big Cass storyline is just a waste of time, they should have gone to #SmackDownLIVE to challenge for the tag titles #RAW #WWE'",0,'Derbyshire',,,
236,889654393641066499,Amazingshot22,'@realellsworth when are you coming back to #SmackDownLIVE',0,'West Virginia',,,
237,889654033442627585,funwithgigi,'@RandyOrton #wwenewark #SummerSlam #SmackDownLIVE https://t.co/BaYYMYMHip',0,'',,,
238,889654007718961154,Clint8813,'Hey @WWEDanielBryan and @shanemcmahon \xf0\x9f\x91\x8b\xf0\x9f\x8f\xbc I know a great female superstar that would shine on #SmackdownLive! Her name is @EmmaWWE',0,'SXRL #48 2 Wins (Retired)',,,
239,889653956363915269,rosalena76,'#WWENewarkDe #wwe @wwe #smackdownlive https://t.co/1NBSbCe1jC',0,'',,,
240,889653949573287936,SaniaPMirzani,"'RT @Wikkie_Leaks_In: #WWEChampionship #WWEBattleground #RAW #SmackdownLive show #India in poor light by ""showing"" that \xf0\x9f\x98\x8eJinder won by help\xe2\x80\xa6'",4,'Thane  India',,,
241,889653742685040646,Wikkie_Leaks_In,"'RT @Wikkie_Leaks_In: #WWEChampionship #WWEBattleground #RAW #SmackdownLive show #India in poor light by ""showing"" that \xf0\x9f\x98\x8eJinder won by help\xe2\x80\xa6'",4,'',,,
242,889653713698160642,Wikkie_Leaks_In,"'#WWEChampionship #WWEBattleground #RAW #SmackdownLive show #India in poor light by ""showing"" that \xf0\x9f\x98\x8eJinder won by he\xe2\x80\xa6 https://t.co/KzH7VOVV5t'",4,'',,,
243,889653308109049856,Sweetee1111,'RT @Wrestling_reg: Jbl is a tough son of a bitch #WWE #SmackDownLIVE #Throwback #JohnCena https://t.co/PSCYtowzcJ',1,'Venus  Planet of love.',,,
244,889652791605682180,DaRealPatrickP,"'At 8:30 est I turned on Raw just to FF to the Cass match at 9pm.\n #WWE,#Raw,#WweRaw,#SDLIVE,#SMACKDOWNLIVE,#WWESMACKDOWNLIVE,#SMACKDOWN'",0,'Bath NY',,,
245,889652253623242755,Dntinterupdaddy,'@Yougoththis anyone know who he is how the hell he has front row seats to lifetime of Every #RAW #SMACKDOWNLIVE  an\xe2\x80\xa6 https://t.co/sVpx9g1qI8',0,'Baltimore  MD',,,
246,889652220949655552,building4292014,'RT @wweheel2: Retweet If Your Ready For #WWEBattleground \n\n#WWE #SmackDownLIVE https://t.co/azG7mwnarj',9,'Mount Gilead  OH',,,
247,889651249053933568,RealTyReno2,'Ok can someone tell me why the hell @ReneeYoungWWE us on #RAW ??? Can #SmackDownLIVE have anything???',0,'',,,
248,889650730172338176,sensesfail5,"'RT @DodgyClare: Woah, what the hell is @ReneeYoungWWE doing at #RAW You belong to #SmackDownLIVE'",2,'New Jersey',,,
249,889650576782479361,DamienService,"""Why is @ReneeYoungWWE on #RAW? She's a #SmackdownLive backstage interviewer. Did @CharlyCarusoWWE get a night off tonight?""",0,'New Zealand',,,
250,889650553311121410,Christian90Cena,'Wait Renee Young is on #RAW now or is she still on #SmackDownLive',0,'Aurora  IL',,,
251,889650507148660736,DodgyClare,"'Woah, what the hell is @ReneeYoungWWE doing at #RAW You belong to #SmackDownLIVE'",2,'Washington  England',,,
252,889650416509755393,KINGJEFFTK,"""RT @WWEDanielBryan: Don't worry, son, you'll find out who your REAL father is next week on #SmackdownLive... oh wait, did I give it away by\xe2\x80\xa6""",4461,'Avon  OH',,,
253,889649321662132224,Armand27,'Sooo #SmackDownLIVE didnt get anything for Jason Jordan? Is there a illegitimate child opt out FA clause in the @wwe? @Matmenpodcast',0,'New York  NY',,,
254,889648086401810432,TruMaddness,"'@WWEgames @Hulu on wednesday so I can watch #wweraw  &amp; #SmackDownLIVE backToBack fast forword the crap, so I get ab\xe2\x80\xa6 https://t.co/NN1bWXJewO'",0,'Michigan  USA',,,
255,889647953639604224,Hammered_Cat,'At the moment #RAW is way better than #SmackDownLIVE #NoDQMatch',1,'Cleveland  OH',,,
256,889647819371556864,MrWaylonValiant,"""RT @RealMickFoley: I have a little post up about how much I like @NaomiWWE's new #SmackDownLive #WomensChampionship title. #FeelTheGlow htt\xe2\x80\xa6""",152,'',,,
257,889646902140182532,sexyboy529,"""RT @RealMickFoley: I have a little post up about how much I like @NaomiWWE's new #SmackDownLive #WomensChampionship title. #FeelTheGlow htt\xe2\x80\xa6""",152,'YouTube legit boss',,,
258,889646731411025921,NatteByNature,"""RT @RWWrestling: BREAKING: On tonight's episode of #SmackdownLive Naomi returns to make the RW Universe #FeelTheGlow https://t.co/RKrl1tZMua""",2,'all over the world!',,,
259,889646277948051457,zathomas1930,'#SmackDownLIVE step your game up! LOL',1,'In peace with God',,,
260,889644289482993665,EWCoastConnect,'Alright #wwe fans! We will have weekly #RAW vs #SmackDownLIVE articles starting this week. Give us a follow and we will #followback',1,'United States',,,
261,889643908338257922,c_brown102,"""#Khali &amp; #Mahal vs #Cena &amp; #Orton in a tag team match at #SummerSlam please don't do this to us #Vince #WWE #SmackDownLIVE""",0,'',,,
262,889642219338166273,RickiKenny,'#SmackDownLIVE take note look at #RAW title match for #summerslam and look what u properly have jinda vs randy again \xf0\x9f\x98\x82\xf0\x9f\x98\x82\xf0\x9f\x98\x82 @WWE',0,'',,,
263,889642083547582465,snoppydogg12,'@wwe__raw #WWEChampionship #WWE2K18 #WWESuperstars #WWWBattleground #WWEWASHINGTON #SmackDownLIVE  https://t.co/pZn26xhIs2',0,'Atlanta  GA',,,
264,889641962478940160,FutureInTheWWE,'What an exciting start to #RAW...  which has been better than #SmackDownLive for weeks. \nI hope @BraunStrowman wins @SummerSlam!\n#NewEra',0,'My World Of Reality',,,
265,889641449452695552,Narfmonster,"""@Sheltyb803  Are you medically cleared to preform for @WWE's #SmackDownLIVE brand yet?""",0,'Millersville  MD',,,
266,889641410059743232,dougcyrus1,'@WWEDanielBryan you going let @WWERomanReigns talk about #SmackDownLIVE like that',0,'miami fl',,,
267,889641285732139008,DaRealPatrickP,"'#WWE,#Raw,#WweRaw,#SDLIVE,#SMACKDOWNLIVE,#WWESMACKDOWNLIVE,#SMACKDOWN,#WWESMACKDOWN,#WWEUniverse https://t.co/kwD7hTo5Zp'",0,'Bath NY',,,
268,889640822899081216,D_SportsFan,'This is why #RAW is now better than #SmackDownLive',0,'24',,,
269,889640452537946119,ManiPinto1,'RT @RingsideC: Set up your ring for #SMACKDOWNLIVE w/ this Exclusive #WWE Ring Skirt! https://t.co/FZeVyoNhQp #WrestlingFigures https://t.c\xe2\x80\xa6',4,'Yaxley  England',,,
270,889639800168263680,Tom_Videogre,"""So I get #foxtelnow for #Raw and #SmackDownLIVE and the live part of their system isn't even working. This is what I get for going legit.""",0,'Victoria  Shepparton',,,
271,889639432881672193,wrestlegremlins,'@SamoaJoe is easily my favorite wrestler on #RAW and @FightOwensFight on #SmackdownLive .both bad ass dudes. #joesgonnakillyou #fightkofight',0,'California  USA',,,
272,889639099203715072,TheLunaticQueen,"""RT @RealMickFoley: I have a little post up about how much I like @NaomiWWE's new #SmackDownLive #WomensChampionship title. #FeelTheGlow htt\xe2\x80\xa6""",152,'\xe2\x9d\x8cBrooklyn  NY\xe2\x9c\x96',,,
273,889638758148190208,DaRealPatrickP,"'Ha Ha Jinder is still champ !!#WWE,#Raw,#WweRaw,#SDLIVE,#SMACKDOWNLIVE,#WWESMACKDOWNLIVE,#SMACKDOWN,#WWESMACKDOWN,#WWEUniverse'",0,'Bath NY',,,
274,889637761803841545,DaRealPatrickP,"'Natty better win SUMMER SLAM !!\n #WWE,#Raw,#WweRaw,#SDLIVE,#SMACKDOWNLIVE,#WWESMACKDOWNLIVE,#SMACKDOWN,#WWESMACKDOWN,#WWEUniverse'",0,'Bath NY',,,
275,889637178015453185,cehntahr,"""RT @BlayneKyle: Look, it's a WWE Smackdown creative meeting!  \n#WWE \n#SmackDownLIVE \n#wehavenoideawhatweredoing https://t.co/CEodEoxnNY""",1,'Georgia',,,
276,889636527906721794,snoppydogg12,'@wwe__raw #WWEBatleground #wweraw #SmackDownLIVE  https://t.co/sW77aqFim2',0,'Atlanta  GA',,,
277,889636499561598977,awestover,'What will #Raw do to top horrible #SmackDownLIVE story of the Great Khali coming back? #wwe @WWE',0,'nottingham maryland',,,
278,889635182109765632,bfrzach,'Not the outcome I was expecting for the #SmackDownLIVE tag belts at #WWEBattleground but Usos &amp; New Day both brought it. Good match overall',0,'Edwardsville  IL',,,
279,889635155765325824,615_Jason23,'#SmackDownLIVE is better than #Raw but since i am a die hard wrestling fan i watch both',0,'',,,
280,889633869334544385,KLander_15,"""Why isn't #SmackDownLIVE using @HEELZiggler like he's suppose to be used? Tons of talent that's getting wasted!""",0,'Sioux City  IA',,,
281,889633758567174144,9VV81YLvEHthVWT,'RT @NatbyNature: Congrats on your big win tonight on #smackdownlive @AlexaBliss_WWE AND happy birthday to you! \xf0\x9f\x8e\xbc\xf0\x9f\x8e\x82\xf0\x9f\x8e\x88\xf0\x9f\x8e\x89\xf0\x9f\x8e\x81 ... https://t.co/lJUYJ\xe2\x80\xa6',452,'',,,
282,889633461241344000,DuronMoss,"""RT @RealMickFoley: I have a little post up about how much I like @NaomiWWE's new #SmackDownLive #WomensChampionship title. #FeelTheGlow htt\xe2\x80\xa6""",152,'Freeport  Grand Bahama',,,
283,889632237729218560,JusWrestling,"'RT @MADNESS_NH_97: @WWERoadDogg Today I pray that @WWERoadDogg stops fucking up #SmackdownLive &amp; Nakamura, Owens, Styles etc. etc.'",3,'AMERICA',,,
284,889631714124988417,shaakiralindsey,"""RT @RealMickFoley: I have a little post up about how much I like @NaomiWWE's new #SmackDownLive #WomensChampionship title. #FeelTheGlow htt\xe2\x80\xa6""",152,'',,,
285,889630365429706754,t9LmJASmmLD142r,'RT @kidwikked: Is that @alyankovic at #SmackDownLIVE.  Even @BeckyLynchWWE is shocked https://t.co/sDLmXwJY3A',6,'',,,
286,889629500283248640,quantamon,'That had to have been the worse ppv that #SmackDownLIVE has put on. #FashionFiles was the best part of the show. #WWEBattleground',0,'Sydney  New South Wales',,,
287,889627787837018116,_chuckks,'Who ever thought this will happen 4 years later at #Summerslam @NaomiWWE vs @NatbyNature  for the #SmackDownLIVE Wo\xe2\x80\xa6 https://t.co/dhGqpjfnhN',1,'New Orleans',,,
288,889626697175269386,aFB9YVE9sD3GtCi,'RT @MarieJoshay: Why !!!!#SmackDownLIVE',9,'',,,
289,889626383403626496,BlueRainja,"'RT @WillieJSmithII: My latest WWE fan art ft. the Neeeew IC champion, Dean Ambrose!\n#DeanAmbrose #SmackDownLIVE #intercontinentalchampion #\xe2\x80\xa6'",9,'S.LDN Croydon  12  3rd iStreet',,,
290,889626274955657216,iBryttani,"""RT @RealMickFoley: I have a little post up about how much I like @NaomiWWE's new #SmackDownLive #WomensChampionship title. #FeelTheGlow htt\xe2\x80\xa6""",152,'',,,
291,889625342180286465,BlueRainja,"'RT @WillieJSmithII: Showing WWE champion @WWEBrayWyatt some love with a quick sketch! Congrats, man!\n#BrayWyatt #wwe #SmackDownLIVE https:/\xe2\x80\xa6'",2,'S.LDN Croydon  12  3rd iStreet',,,
292,889625295526998016,BlueRainja,'RT @WillieJSmithII: I had to draw the @WWEUsos after that AMAZING promo last night on #SmackDownLIVE!\n#wwe #TheUsos #ItsNOTparanoia https:/\xe2\x80\xa6',8,'S.LDN Croydon  12  3rd iStreet',,,
293,889625102744203265,BlueRainja,"""RT @WillieJSmithII: My latest WWE fan art, ft. @WWEBrayWyatt from last night's Smackdown Live.   \nI LOVED this segment!\n#wwe #smackdownlive\xe2\x80\xa6""",14,'S.LDN Croydon  12  3rd iStreet',,,
294,889624959705894913,BlueRainja,'RT @WillieJSmithII: My latest WWE fan art ft. @ShinsukeN!\n#SmackDownLIVE #ShinsukeNakamura https://t.co/iAcxMO3noa',13,'S.LDN Croydon  12  3rd iStreet',,,
295,889624508625281029,CedCederic,"""I hate that john cena is a free agent because you'll never know what show he'll be on #wweraw or #SmackDownLIVE""",0,'Bread winner state of mind',,,
296,889622959891116033,Celina13579,"""RT @RealMickFoley: I have a little post up about how much I like @NaomiWWE's new #SmackDownLive #WomensChampionship title. #FeelTheGlow htt\xe2\x80\xa6""",152,'',,,
297,889622722816245760,omega1596,"""RT @RealMickFoley: I have a little post up about how much I like @NaomiWWE's new #SmackDownLive #WomensChampionship title. #FeelTheGlow htt\xe2\x80\xa6""",152,'Corpus Christi  TX',,,
298,889621337362268160,jlass87,'@WWE Brock lesnar is holding up #raw \xf0\x9f\xa4\xa6\xf0\x9f\x8f\xbd\xe2\x80\x8d\xe2\x99\x82\xef\xb8\x8f #SmackDownLIVE is winning @RealKurtAngle @StephMcMahon @TripleH',0,'',,,
299,889620322458116096,yanisbede_,"""RT @RealMickFoley: I have a little post up about how much I like @NaomiWWE's new #SmackDownLive #WomensChampionship title. #FeelTheGlow htt\xe2\x80\xa6""",152,'London  England',,,
300,889620058850328580,Midwace,"""@RealCurtisAxel @WWE How long do we have to wait for you to become WWE Champion? I can't wait anymore!\xe2\x80\xa6 https://t.co/3l48KnIKV2""",0,'Almere',,,
301,889616820705140738,WrestlingBurn,'Check out The Wrestling Burn on #spreaker https://t.co/iAt6PHx753 #podcast #wwe #wrestling #smackdownlive @iheartradio',0,'thewrestlingburn@yahoo.com',,,
302,889616797430710272,Manmeet_Makkar9,'@WWE @RandyOrton Personification of boredom\n#Battleground #jindermahal \n#SmackDownLIVE \n#wweraw https://t.co/9DE1CqbZUq',0,'Vancouver',,,
303,889610743351574528,DaRealPatrickP,"'#WWE,#Raw,#WweRaw,#SDLIVE,#SMACKDOWNLIVE,#WWESMACKDOWNLIVE,#SMACKDOWN,#WWESMACKDOWN,#WWEUniverse https://t.co/AZaBAxOR0Y'",0,'Bath NY',,,
304,889610696144678913,russobookingbot,'Lince Dorado vs Sin Cara with Batista as special referee on #SmackdownLIVE',0,'',,,
305,889606004438175745,mma0311,"""RT @ItsDietrich: WWE #Battleground was rubbish and I'm never going to watch pro wrestling again*.\n\n*Except for #Raw &amp; #SmackDownLIVE &amp; all\xe2\x80\xa6""",1,'',,,
306,889604537840934913,JeremyRoyGoulet,"""RT @RealMickFoley: I have a little post up about how much I like @NaomiWWE's new #SmackDownLive #WomensChampionship title. #FeelTheGlow htt\xe2\x80\xa6""",152,'Canada',,,
307,889603552422899714,RumblingRumors,"""Great Khali's Future and His Role in WWE.\n\nhttps://t.co/1AO3V1uqA9\n\n#WWE #RAW #THEGREATKHALI #SMACKDOWNLIVE\xe2\x80\xa6 https://t.co/AxH2Efu2ps""",1,'Center of The Ring',,,
308,889602498545299458,paul_woodford_2,'RT @walmstu: @WWE  #Battleground was awful. After a below par #MITB #SmackDownLIVE needed to produce a stellar ppv. A talented roster is be\xe2\x80\xa6',1,'London  England',,,
309,889601787799457792,walmstu,'@WWE  #Battleground was awful. After a below par #MITB #SmackDownLIVE needed to produce a stellar ppv. A talented roster is being wasted  \xe2\x98\xb9',1,'England  United Kingdom',,,
310,889595761163476992,WitDaScreenOnIt,"""RT @RealMickFoley: I have a little post up about how much I like @NaomiWWE's new #SmackDownLive #WomensChampionship title. #FeelTheGlow htt\xe2\x80\xa6""",152,'hollow bastion.',,,
311,889593626627645441,TheRealJaedenJH,'Yes!!! So now @WWERollins can go to #SmackDownLIVE as well as @FinnBalor https://t.co/Dl2bSZ441z',0,'Brighton  AL',,,
312,889591158770479108,wMqo95yBZ0d0HY4,'RT @wweespanol: Con la imagen del CAMPE\xc3\x93N arropado por sus compa\xc3\xb1eros de #SmackDownLive despedimos #WWEBattleground. Lo esperaban? https://\xe2\x80\xa6',274,'',,,
313,889591076109135872,Wwefansopinions,'Ermmmmmmm what is the Great Khali doing back.... #PunjabiPrison #WWEBattleground #SmackDownLIVE #WWE',0,'',,,
314,889589573252247554,BoStaffTurtle,"""RT @RealMickFoley: I have a little post up about how much I like @NaomiWWE's new #SmackDownLive #WomensChampionship title. #FeelTheGlow htt\xe2\x80\xa6""",152,'',,,
315,889588113202450433,MrFastLyfe,'#Justice4RandyOrton #WWE #SmackdownLive @RandyOrton @WWE @RealSDLive @SmackdownLIVE',0,'Virginia',,,
316,889586691576606720,RachelDee8,'Ivory Shoots on Kurt Angle Triple H and Wrestlers Court  https://t.co/LKhHImRBor #smackdownlive #wwe #hhh',0,'',,,
317,889586427188609025,QhXuXyQ56o4WrlY,'RT @XxHPxX95: I waited all night for this shitty as fight come on #GreatBallsOfFire #WWEBalls #SmackdownLIVE has better main events that #R\xe2\x80\xa6',2,'',,,
318,889586107305930756,SamisWWE97,"""RT @RealMickFoley: I have a little post up about how much I like @NaomiWWE's new #SmackDownLive #WomensChampionship title. #FeelTheGlow htt\xe2\x80\xa6""",152,'Warrington',,,
319,889586037827272707,TheOmariLeon,"""RT @RealMickFoley: I have a little post up about how much I like @NaomiWWE's new #SmackDownLive #WomensChampionship title. #FeelTheGlow htt\xe2\x80\xa6""",152,'New Jersey  USA',,,
320,889583714853949441,shearin_alex,'RT @RingsideC: Set up your ring for #SMACKDOWNLIVE w/ this Exclusive #WWE Ring Skirt! https://t.co/FZeVyoNhQp #WrestlingFigures https://t.c\xe2\x80\xa6',4,'',,,
321,889583135591026688,jonmcbrine,"""#SmackDownLIVE blew it w/ #Battleground \nBut that's what you get with #RandyOrton as your main event. Or just on the show""",0,'Dallas  TX',,,
322,889582467606343680,DubarWilmont,"""@HEELZiggler saying goodbye to the fans he was so nice wish he could've stayed @WWE @XFINITY #KOP #SmackdownLive https://t.co/ITShwr0NGn""",0,'',,,
323,889582143713792001,Wwefansopinions,'Skip the Sami Zayn match as he is always a bore... #WWE #WWEBattleground #SmackDownLIVE',0,'',,,
324,889581718314921985,Wwefansopinions,'John Cena was never going to loose a returning match to PPV fighting fir America. \xf0\x9f\x87\xba\xf0\x9f\x87\xb8 \xf0\x9f\x9a\xa9 \xf0\x9f\x98\xb4 #WWE #WWEBattleground #SmackDownLIVE',0,'',,,
325,889581516061380608,beau_melanin,"""RT @RealMickFoley: I have a little post up about how much I like @NaomiWWE's new #SmackDownLive #WomensChampionship title. #FeelTheGlow htt\xe2\x80\xa6""",152,'',,,
326,889581228143267840,Starbright007,"""RT @RealMickFoley: I have a little post up about how much I like @NaomiWWE's new #SmackDownLive #WomensChampionship title. #FeelTheGlow htt\xe2\x80\xa6""",152,'California',,,
327,889580741801246720,Wwefansopinions,'Rusev looks like he as leaned up!! \xf0\x9f\x92\xaa #WWEBattleground #SmackDownLIVE',0,'',,,
328,889580618635497472,1D_Luver_013,"""RT @RealMickFoley: I have a little post up about how much I like @NaomiWWE's new #SmackDownLive #WomensChampionship title. #FeelTheGlow htt\xe2\x80\xa6""",152,'',,,
329,889580239977951232,30Batman313,"""RT @RealMickFoley: I have a little post up about how much I like @NaomiWWE's new #SmackDownLive #WomensChampionship title. #FeelTheGlow htt\xe2\x80\xa6""",152,'Michigan  USA',,,
330,889579646739677184,KayFabeulous,"""Who's going to #SmackDownLIVE in #Toronto on 8/8??""",0,'Toronto',,,
331,889579439717314564,PureMassacre89,'RT @RingsideC: Set up your ring for #SMACKDOWNLIVE w/ this Exclusive #WWE Ring Skirt! https://t.co/FZeVyoNhQp #WrestlingFigures https://t.c\xe2\x80\xa6',4,'',,,
332,889579191510994944,lightsonnatalie,"'I was so happy to see my boyfrie- I mean, @RandyOrton last night...\xe2\x98\xba\xef\xb8\x8f #WWEBatleground #PunjabiPrisonMatch #SmackDownLIVE #bae'",1,'',,,
333,889578811599310850,Firerocket305,'RT @karloskillsyou: Road Dogg is single handling is fucking up #SmackDownLIVE\n@WWE @shanemcmahon @WWEDanielBryan',1,'',,,
334,889578072164491265,mtb4758,'RT @RingsideC: Set up your ring for #SMACKDOWNLIVE w/ this Exclusive #WWE Ring Skirt! https://t.co/FZeVyoNhQp #WrestlingFigures https://t.c\xe2\x80\xa6',4,'youtube',,,
335,889577898327322624,blooddesubslo11,'RT @liammosley: Did @WWEBrayWyatt really just black up on smackdown live #triggered #notreally #SmackDownLIVE',2,'',,,
336,889577290040049664,ItsDietrich,"""WWE #Battleground was rubbish and I'm never going to watch pro wrestling again*.\n\n*Except for #Raw &amp; #SmackDownLIVE &amp; all PPVs...""",1,'Leeds  UK',,,
337,889577193948446720,FettyWapArmy,'AJ Styles better stay on #SmackDownLIVE! https://t.co/BvP5ygZ6rE',0,'Ashtadir forever and always \xf0\x9f\x92\x91',,,
338,889575929198129152,RingsideC,'Set up your ring for #SMACKDOWNLIVE w/ this Exclusive #WWE Ring Skirt! https://t.co/FZeVyoNhQp #WrestlingFigures https://t.co/GJ62bfZeLh',4,'Long Island  NY',,,
339,889575788747530240,KingQueen69691,'So ready for #Raw tonight ! #WWE #SmackdownLive ready to scream at the TV and show out ! #LasVegas',0,'',,,
340,889575710775554048,HalleMichelle24,"""RT @RealMickFoley: I have a little post up about how much I like @NaomiWWE's new #SmackDownLive #WomensChampionship title. #FeelTheGlow htt\xe2\x80\xa6""",152,'Arkadelphia AR',,,
341,889574401292857344,cosryder,"""RT @RealMickFoley: I have a little post up about how much I like @NaomiWWE's new #SmackDownLive #WomensChampionship title. #FeelTheGlow htt\xe2\x80\xa6""",152,'',,,
342,889573041608548352,ElijahDuncan_,"""RT @RealMickFoley: I have a little post up about how much I like @NaomiWWE's new #SmackDownLive #WomensChampionship title. #FeelTheGlow htt\xe2\x80\xa6""",152,'Carolina',,,
343,889572832887226368,LiuXx11,'COMIENZA EL MAIN EVENT DE #SmackdownLive Lucha por el campeonato de los estados unidos. https://t.co/4OTsZ4r6h2',0,'',,,
344,889571820076249088,matcudithin1979,"""RT @LesroyFresh: #SmackDownLIVE u guys are totally gonna win the men's 5 on 5 traditional survivor series match""",13,'',,,
345,889571450314674176,lucha_lipe,"""RT @RealMickFoley: I have a little post up about how much I like @NaomiWWE's new #SmackDownLive #WomensChampionship title. #FeelTheGlow htt\xe2\x80\xa6""",152,'San Diego  CA',,,
346,889570425805697028,liucitsafa1987,'RT @midaaaaaaa: La entrada de @NaomiWWE en #SmackDownLIVE es inigualable \xf0\x9f\x98\x8a\xf0\x9f\x92\x83\xf0\x9f\x8f\xbd',2,'',,,
347,889568597403549696,jmercadolions92,"""RT @RealMickFoley: I have a little post up about how much I like @NaomiWWE's new #SmackDownLive #WomensChampionship title. #FeelTheGlow htt\xe2\x80\xa6""",152,'Hawthorne  CA',,,
348,889568440398168064,CharlieImpact,'RT @charlierdz99: TRUE. #TheMiracle \xf0\x9f\x98\x8a\xf0\x9f\x91\x8c #TrueLove #WWE #SmackdownLive #impactonpop @RealMikeBennett @MariaLKanellis https://t.co/fvbpztkw9y',1,'',,,
349,889568435730079744,EdsonBaeza,"""RT @RealMickFoley: I have a little post up about how much I like @NaomiWWE's new #SmackDownLive #WomensChampionship title. #FeelTheGlow htt\xe2\x80\xa6""",152,'Houston  Texas',,,
350,889567093640888321,JDFromNYFan1,"'RT @MADNESS_NH_97: @WWERoadDogg Today I pray that @WWERoadDogg stops fucking up #SmackdownLive &amp; Nakamura, Owens, Styles etc. etc.'",3,'Nova Scotia  Canada',,,
351,889566110357630978,ShowOffDR,"""RT @WWEDanielBryan: Don't worry folks, next week after #SmackdownLive, @ReneeYoungWWE and I will host a pirate version of #TalkingSmack on\xe2\x80\xa6""",2074,'',,,
352,889566108168192000,AXEtheMercenary,"""RT @RealMickFoley: I have a little post up about how much I like @NaomiWWE's new #SmackDownLive #WomensChampionship title. #FeelTheGlow htt\xe2\x80\xa6""",152,'Philadelphia  PA  USA',,,
353,889565278794911744,Yungraf27,"""#MoneyInTheBank should be random were superstar has no ideal what he's gonna get it could be any belt from #Raw or\xe2\x80\xa6 https://t.co/eS9hJRIbjr""",1,'Minnesota  USA',,,
354,889564407054966785,_CHILDISHGAMES,"""RT @RealMickFoley: I have a little post up about how much I like @NaomiWWE's new #SmackDownLive #WomensChampionship title. #FeelTheGlow htt\xe2\x80\xa6""",152,'My Lil Gay Bubble',,,
355,889563990665248768,CharlieImpact,'TRUE. #TheMiracle \xf0\x9f\x98\x8a\xf0\x9f\x91\x8c #TrueLove #WWE #SmackdownLive #impactonpop @RealMikeBennett @MariaLKanellis https://t.co/fvbpztkw9y',1,'',,,
356,889563058644951040,UglyByNature_,"""RT @RealMickFoley: I have a little post up about how much I like @NaomiWWE's new #SmackDownLive #WomensChampionship title. #FeelTheGlow htt\xe2\x80\xa6""",152,'Rio de Janeiro',,,
357,889562592477368321,CreativeSoulxo,"""RT @RealMickFoley: I have a little post up about how much I like @NaomiWWE's new #SmackDownLive #WomensChampionship title. #FeelTheGlow htt\xe2\x80\xa6""",152,'Sephar\xc3\xb8\xc5\x81and',,,
358,889562194597339137,Schwanzenfuhrer,'Jochen hat die neuen Power Rankings f\xc3\xbcr RAW aufgestellt. - https://t.co/rIfjUgRdFC #WWE #WWEBattleground #SmackDownLIVE #wweraw #RomanReigns',0,'Nuremberg  Germany',,,
359,889561810621394944,womenswrasslin,"""RT @RealMickFoley: I have a little post up about how much I like @NaomiWWE's new #SmackDownLive #WomensChampionship title. #FeelTheGlow htt\xe2\x80\xa6""",152,'',,,
360,889561721706352643,ELIJAHRYANS,"""RT @RealMickFoley: I have a little post up about how much I like @NaomiWWE's new #SmackDownLive #WomensChampionship title. #FeelTheGlow htt\xe2\x80\xa6""",152,'Boston  MA',,,
361,889560956551876608,ThatGuyAtom102,"""RT @WWEDanielBryan: Don't worry folks, next week after #SmackdownLive, @ReneeYoungWWE and I will host a pirate version of #TalkingSmack on\xe2\x80\xa6""",2074,'Wherever The Wind Takes Me',,,
362,889560389440217088,jackdugan1997,"""RT @RealMickFoley: I have a little post up about how much I like @NaomiWWE's new #SmackDownLive #WomensChampionship title. #FeelTheGlow htt\xe2\x80\xa6""",152,'',,,
363,889559758805626880,Stevenjsmith92,'What is it with bad finishes when it comes to #SmackDownLIVE and their pay per views. #Battleground',0,'Sunderland  England',,,
364,889557033552400384,ufoiuTydynPjXOZ,'RT @cadencerisano: I am watching @WWE  #SmackdownLive',1,'',,,
365,889556189528424453,Peterconst,"'Can we please start a ""Mr. Wrestling"" chant next time @FightOwensFight is on #SmackDownLIVE'",0,'Canada',,,
366,889556130631962625,hervell_m,"""RT @RealMickFoley: I have a little post up about how much I like @NaomiWWE's new #SmackDownLive #WomensChampionship title. #FeelTheGlow htt\xe2\x80\xa6""",152,'Johannesburg  South Africa',,,
367,889555969331658754,Rmeehan33,"""When you're at a family reunion and your favourite cousins come over @JinderMahal @SinghBrosWWE #WWEBattleground\xe2\x80\xa6 https://t.co/fJOW99zz1G""",0,'',,,
368,889555866403442691,Jasmine40015354,'RT @Th3Awesom3On3: Can @BraunStrowman come on #SmackDownLIVE and DESTROY @JinderMahal @WWE #Battleground #WWEChampionship',1,'',,,
369,889555546470330368,OGcolorwaysOnly,"""RT @RealMickFoley: I have a little post up about how much I like @NaomiWWE's new #SmackDownLive #WomensChampionship title. #FeelTheGlow htt\xe2\x80\xa6""",152,'StarkTowers',,,
370,889554958269517824,xeliamm,"""RT @RealMickFoley: I have a little post up about how much I like @NaomiWWE's new #SmackDownLive #WomensChampionship title. #FeelTheGlow htt\xe2\x80\xa6""",152,'Polska',,,
371,889553392913305601,TMY_WWETWEETER,'I am actually pretty excited to see what happens on #SmackDownLIVE with the Great Khali and stuff #WWE #SDLive #TheGreatKhali #JinderMahal',0,'United States',,,
372,889552420421947392,TheKidFour20,'RT @russobookingbot: Fandango vs Luke Harper vs The Undertaker vs Gran Metalik in a Fatal Four Way Empty Arena match on #SmackdownLIVE',1,'where ever you go....',,,
373,889551831940071424,imramanc,'Welcome back #GreatKhali in @WWE #SmackDownLIVE',0,'Gwalior India',,,
374,889551645453012994,VigiKelly,"""RT @RealMickFoley: I have a little post up about how much I like @NaomiWWE's new #SmackDownLive #WomensChampionship title. #FeelTheGlow htt\xe2\x80\xa6""",152,'',,,
375,889551622287831041,FettyWapArmy,'@AJStylesOrg &amp; @JohnCena for #SmackDownLIVE tag team champions. #SDLive',0,'Ashtadir forever and always \xf0\x9f\x92\x91',,,
376,889551413331800064,RebelKelley,'@WWE  needs to end the @JinderMahal @RandyOrton feud its stale as fuck #SmackDownLIVE',0,'Valhalla CSA',,,
377,889551122926579713,FettyWapArmy,'#SmackDownLIVE #TheAJStylesShow',0,'Ashtadir forever and always \xf0\x9f\x92\x91',,,
378,889550514345660416,HlghClassBros,"""RT @RealMickFoley: I have a little post up about how much I like @NaomiWWE's new #SmackDownLive #WomensChampionship title. #FeelTheGlow htt\xe2\x80\xa6""",152,'Atlanta',,,
379,889550393096712193,ViperA6X5953,"""RT @RealMickFoley: I have a little post up about how much I like @NaomiWWE's new #SmackDownLive #WomensChampionship title. #FeelTheGlow htt\xe2\x80\xa6""",152,'City of Evil  Bat Country.',,,
380,889550299194695680,russobookingbot,'Fandango vs Luke Harper vs The Undertaker vs Gran Metalik in a Fatal Four Way Empty Arena match on #SmackdownLIVE',1,'',,,
381,889550282149027842,DeRebeiex,"""RT @RealMickFoley: I have a little post up about how much I like @NaomiWWE's new #SmackDownLive #WomensChampionship title. #FeelTheGlow htt\xe2\x80\xa6""",152,'Swanzey',,,
382,889549981354528768,j12o9,"""RT @RealMickFoley: I have a little post up about how much I like @NaomiWWE's new #SmackDownLive #WomensChampionship title. #FeelTheGlow htt\xe2\x80\xa6""",152,'Venice  il',,,
383,889549326170677252,thespeed1flight,"""RT @RealMickFoley: I have a little post up about how much I like @NaomiWWE's new #SmackDownLive #WomensChampionship title. #FeelTheGlow htt\xe2\x80\xa6""",152,'CT',,,
384,889549146251608064,NlkkiCam,"""RT @RealMickFoley: I have a little post up about how much I like @NaomiWWE's new #SmackDownLive #WomensChampionship title. #FeelTheGlow htt\xe2\x80\xa6""",152,'Phoenix',,,
385,889548893263863809,waynedeslgnedup,"""RT @RealMickFoley: I have a little post up about how much I like @NaomiWWE's new #SmackDownLive #WomensChampionship title. #FeelTheGlow htt\xe2\x80\xa6""",152,'',,,
386,889548709251428353,Dinaameliaaa_13,"""RT @RealMickFoley: I have a little post up about how much I like @NaomiWWE's new #SmackDownLive #WomensChampionship title. #FeelTheGlow htt\xe2\x80\xa6""",152,'whnever u wnt',,,
387,889548580473765891,catjullanoyogaa,"""RT @RealMickFoley: I have a little post up about how much I like @NaomiWWE's new #SmackDownLive #WomensChampionship title. #FeelTheGlow htt\xe2\x80\xa6""",152,'New York',,,
388,889547845375844352,beebombsheil,"""RT @RealMickFoley: I have a little post up about how much I like @NaomiWWE's new #SmackDownLive #WomensChampionship title. #FeelTheGlow htt\xe2\x80\xa6""",152,'In my own little world',,,
389,889547716220637185,SassMasterEllse,"""RT @RealMickFoley: I have a little post up about how much I like @NaomiWWE's new #SmackDownLive #WomensChampionship title. #FeelTheGlow htt\xe2\x80\xa6""",152,'Maine',,,
390,889547612755505152,SpreadBOS490,"""RT @RealMickFoley: I have a little post up about how much I like @NaomiWWE's new #SmackDownLive #WomensChampionship title. #FeelTheGlow htt\xe2\x80\xa6""",152,'Boston  MA',,,
391,889547604970700801,criticsviews,"""RT @RealMickFoley: I have a little post up about how much I like @NaomiWWE's new #SmackDownLive #WomensChampionship title. #FeelTheGlow htt\xe2\x80\xa6""",152,'Chennai  India',,,
392,889547464222494720,MBurke00,"""RT @RealMickFoley: I have a little post up about how much I like @NaomiWWE's new #SmackDownLive #WomensChampionship title. #FeelTheGlow htt\xe2\x80\xa6""",152,'Boston  MA',,,
393,889547310622965761,WwecomMichael,"""RT @RealMickFoley: I have a little post up about how much I like @NaomiWWE's new #SmackDownLive #WomensChampionship title. #FeelTheGlow htt\xe2\x80\xa6""",152,'AUGUSTA GA',,,
394,889547033845092352,JackRachwalskl,"""RT @RealMickFoley: I have a little post up about how much I like @NaomiWWE's new #SmackDownLive #WomensChampionship title. #FeelTheGlow htt\xe2\x80\xa6""",152,'',,,
395,889546019838537728,MattMMyers,"""RT @RealMickFoley: I have a little post up about how much I like @NaomiWWE's new #SmackDownLive #WomensChampionship title. #FeelTheGlow htt\xe2\x80\xa6""",152,'Canada',,,
396,889545414751506432,SamTheGreat30,"""RT @RealMickFoley: I have a little post up about how much I like @NaomiWWE's new #SmackDownLive #WomensChampionship title. #FeelTheGlow htt\xe2\x80\xa6""",152,'Brooklyn  NY',,,
397,889545303610855424,reigninsupremex,"""RT @RealMickFoley: I have a little post up about how much I like @NaomiWWE's new #SmackDownLive #WomensChampionship title. #FeelTheGlow htt\xe2\x80\xa6""",152,'\xe2\x9c\x88',,,
398,889544702160195584,MarySiekkinen,"""RT @RealMickFoley: I have a little post up about how much I like @NaomiWWE's new #SmackDownLive #WomensChampionship title. #FeelTheGlow htt\xe2\x80\xa6""",152,'',,,
399,889544603749064704,xLydiaTx,"""RT @RealMickFoley: I have a little post up about how much I like @NaomiWWE's new #SmackDownLive #WomensChampionship title. #FeelTheGlow htt\xe2\x80\xa6""",152,'Kalifornia \xf0\x9f\x92\x9b',,,
400,889543536567361536,wweheel2,'News/Rumours: \n\nJinder Mahal WWE Title Run To End At\xc2\xa0SummerSlam\xc2\xa0Or SmackDown\xe2\x80\x99s September PPV At The Latest...\xe2\x80\xa6 https://t.co/jiaqpmIeBA',2,'',,,
401,889543462391033856,karloskillsyou,'Road Dogg is single handling is fucking up #SmackDownLIVE\n@WWE @shanemcmahon @WWEDanielBryan',1,'Suplex City',,,
402,889543223353499654,Th3Awesom3On3,'Can @BraunStrowman come on #SmackDownLIVE and DESTROY @JinderMahal @WWE #Battleground #WWEChampionship',1,'',,,
403,889542241823457280,SimsLyndon,'#WWEBattleGround #SmackDownLIVE has a roster packed with talent busting there balls for nothing. Whilst the Great Khali is brought back #wtf',0,'The Kitchen',,,
404,889541936822059008,Moon_Moneeb,"'This is absurd but please clear it,\n\nDO YOU LIKE @JinderMahal ?\n\n#WWE #Battleground #WWEBattleground #WWEChampionship #SmackDownLIVE'",1,'California  USA',,,
405,889541815325642760,SimsLyndon,'#WWEBattleGround Vince has lost the plot. Going into Mania #SmackDownLIVE was awesome. But he still manages to ruin it. Why Kahli? Why?',0,'The Kitchen',,,
406,889541415461683200,RElGNSSECTION,"""RT @RealMickFoley: I have a little post up about how much I like @NaomiWWE's new #SmackDownLive #WomensChampionship title. #FeelTheGlow htt\xe2\x80\xa6""",152,'Raleigh',,,
407,889541138360696832,superficialdoja,"""RT @RealMickFoley: I have a little post up about how much I like @NaomiWWE's new #SmackDownLive #WomensChampionship title. #FeelTheGlow htt\xe2\x80\xa6""",152,'Partying & Bullshiting',,,
408,889540642543742979,Kylegpete1232,"""RT @RealMickFoley: I have a little post up about how much I like @NaomiWWE's new #SmackDownLive #WomensChampionship title. #FeelTheGlow htt\xe2\x80\xa6""",152,'Inkster  MI',,,
409,889540328889479169,DecayShipp,"""@MsCharlotteWWE Yes!!!! Queen that's a pretty good tag team right there @MsCharlotteWWE my favorite fighter on\xe2\x80\xa6 https://t.co/Erty9gJ5h2""",0,'',,,
410,889539613081120770,Yamajesty92,"""RT @RealMickFoley: I have a little post up about how much I like @NaomiWWE's new #SmackDownLive #WomensChampionship title. #FeelTheGlow htt\xe2\x80\xa6""",152,'Tamarac  United States',,,
411,889539243428777984,CiaranM88x,'Why is @ReneeYoungWWE not on the #SmackDownLIVE or #RAW commentary teams yet #WWEBattleground',0,'Liverpool England',,,
412,889538007589638145,madamreese,"""RT @RealMickFoley: I have a little post up about how much I like @NaomiWWE's new #SmackDownLive #WomensChampionship title. #FeelTheGlow htt\xe2\x80\xa6""",152,'Arkansas  USA',,,
413,889537989696737281,Darlene_mousey,"""RT @RealMickFoley: I have a little post up about how much I like @NaomiWWE's new #SmackDownLive #WomensChampionship title. #FeelTheGlow htt\xe2\x80\xa6""",152,'mayo  florida',,,
414,889536858325229568,WinnersOfLosing,'Just hope that WWE PLEASE allow Nattie to have a championship run @shanemcmahon @NatbyNature #SDLive #WWESDLive #SmackDownLIVE',0,'Animal Kingdom',,,
415,889536752075116546,Will_IKeelYou,"""RT @RealMickFoley: I have a little post up about how much I like @NaomiWWE's new #SmackDownLive #WomensChampionship title. #FeelTheGlow htt\xe2\x80\xa6""",152,'Birmingham/Mobile',,,
416,889536429868666880,mixedgawdess4,"""RT @RealMickFoley: I have a little post up about how much I like @NaomiWWE's new #SmackDownLive #WomensChampionship title. #FeelTheGlow htt\xe2\x80\xa6""",152,'',,,
417,889536240344858624,MavKnowsBest,"""RT @RealMickFoley: I have a little post up about how much I like @NaomiWWE's new #SmackDownLive #WomensChampionship title. #FeelTheGlow htt\xe2\x80\xa6""",152,'Legion Hall',,,
418,889535198081232897,russobookingbot,'Nia Jax vs Alicia Fox in a Boiler Room Brawl on #SmackdownLIVE',0,'',,,
419,889534016155770881,AnissaEllis10,'RT @HeresDavie: https://t.co/xzy5VGRLZw @WWE  @JinderMahal #Battleground2017 #RandyOrton #jindermahal #PunjabiPrisonMatch #SmackDownLIVE pr\xe2\x80\xa6',1,'',,,
420,889532783328202752,stanebofel1984,"""RT @Gill_Powell: Kids off school=Up at silly o'clock to watch #SmackDownLive \xf0\x9f\x98\xb4\xf0\x9f\x92\xaa""",1,'',,,
421,889532063661137923,OfficialJ114,"""RT @RealMickFoley: I have a little post up about how much I like @NaomiWWE's new #SmackDownLive #WomensChampionship title. #FeelTheGlow htt\xe2\x80\xa6""",152,'London  England',,,
422,889531580896600066,ariianalizabeth,"""RT @RealMickFoley: I have a little post up about how much I like @NaomiWWE's new #SmackDownLive #WomensChampionship title. #FeelTheGlow htt\xe2\x80\xa6""",152,'Sacramento  CA',,,
423,889530375994781696,ElowMoJo,"""RT @RealMickFoley: I have a little post up about how much I like @NaomiWWE's new #SmackDownLive #WomensChampionship title. #FeelTheGlow htt\xe2\x80\xa6""",152,'Gold Saucer',,,
424,889529423095058432,kylejuthan,"'RT @MADNESS_NH_97: @WWERoadDogg Today I pray that @WWERoadDogg stops fucking up #SmackdownLive &amp; Nakamura, Owens, Styles etc. etc.'",3,'Dublin  Ireland',,,
425,889528835250802688,jonmcbrine,'If the Revival are Top Guys does that make Breezango Bottom Guys?\n#REVIVAL #Breezango #SmackDownLIVE #raw #wwe #wweraw #Smackdown #breeze',0,'Dallas  TX',,,
426,889528424989151233,JaredRompilla,"""RT @RealMickFoley: I have a little post up about how much I like @NaomiWWE's new #SmackDownLive #WomensChampionship title. #FeelTheGlow htt\xe2\x80\xa6""",152,'',,,
427,889527501453762560,LaurentJacob10,"""RT @RealMickFoley: I have a little post up about how much I like @NaomiWWE's new #SmackDownLive #WomensChampionship title. #FeelTheGlow htt\xe2\x80\xa6""",152,'Bruges  France',,,
428,889527451725971456,monietoofly,"""RT @RealMickFoley: I have a little post up about how much I like @NaomiWWE's new #SmackDownLive #WomensChampionship title. #FeelTheGlow htt\xe2\x80\xa6""",152,'DayGo  Cali',,,
429,889527386739539969,Zinga1991,"""RT @RealMickFoley: I have a little post up about how much I like @NaomiWWE's new #SmackDownLive #WomensChampionship title. #FeelTheGlow htt\xe2\x80\xa6""",152,'New Orleans La',,,
430,889526927895166977,PureMassacre89,"""RT @RealMickFoley: I have a little post up about how much I like @NaomiWWE's new #SmackDownLive #WomensChampionship title. #FeelTheGlow htt\xe2\x80\xa6""",152,'',,,
431,889526757128380416,SoyJarr,"""RT @RealMickFoley: I have a little post up about how much I like @NaomiWWE's new #SmackDownLive #WomensChampionship title. #FeelTheGlow htt\xe2\x80\xa6""",152,'Venezuela',,,
432,889526127408107522,GianniVrs,"""RT @RealMickFoley: I have a little post up about how much I like @NaomiWWE's new #SmackDownLive #WomensChampionship title. #FeelTheGlow htt\xe2\x80\xa6""",152,'',,,
433,889525994519920643,thepoemboy1,"""@TheRock Rocky is there any chance you will be at the last show @ the Joe in #Detroit #WWE #SmackDownLIVE they're going to tear the joe down""",0,'United States',,,
434,889525515274645504,_mollface,"""RT @RealMickFoley: I have a little post up about how much I like @NaomiWWE's new #SmackDownLive #WomensChampionship title. #FeelTheGlow htt\xe2\x80\xa6""",152,'Chapel Hill  NC',,,
435,889523774017740800,Blackbeau5,"""RT @RealMickFoley: I have a little post up about how much I like @NaomiWWE's new #SmackDownLive #WomensChampionship title. #FeelTheGlow htt\xe2\x80\xa6""",152,'United States',,,
436,889523690316156930,supersaiyannash,"""RT @RealMickFoley: I have a little post up about how much I like @NaomiWWE's new #SmackDownLive #WomensChampionship title. #FeelTheGlow htt\xe2\x80\xa6""",152,'with my husbands.',,,
437,889523682468667392,ralph_Smoke_B,"""RT @RealMickFoley: I have a little post up about how much I like @NaomiWWE's new #SmackDownLive #WomensChampionship title. #FeelTheGlow htt\xe2\x80\xa6""",152,'LaLaLand',,,
438,889523045714374657,happythizzin,"""RT @RealMickFoley: I have a little post up about how much I like @NaomiWWE's new #SmackDownLive #WomensChampionship title. #FeelTheGlow htt\xe2\x80\xa6""",152,'',,,
439,889522294539694085,AntAce15,'Next were going to see cena vs Mahal...great. #SmackDownLIVE #WWEBattleground',0,'',,,
440,889521628832559104,w4fanatik,'Una storia vera \xf0\x9f\x98\x82\n#wwe #wweraw #raw #smackdown #smackdownlive #wwememe  #wrestling #wrestlingitalia\xe2\x80\xa6 https://t.co/a5669qbkLh',0,'Trieste  Friuli-Venezia Giulia',,,
441,889520836746633217,Hopekni34884217,"""RT @RealMickFoley: I have a little post up about how much I like @NaomiWWE's new #SmackDownLive #WomensChampionship title. #FeelTheGlow htt\xe2\x80\xa6""",152,'Nc',,,
442,889519720122249216,truthordarrius,"""RT @RealMickFoley: I have a little post up about how much I like @NaomiWWE's new #SmackDownLive #WomensChampionship title. #FeelTheGlow htt\xe2\x80\xa6""",152,'N/A',,,
443,889519679060029440,HeatherA2112,'@InnerN3rd Not good. #SmackDownLIVE  has gone downhill lately a lot',0,'Houghton-le-Spring  England',,,
444,889519430874652672,itsMalcolmCaise,"""RT @RealMickFoley: I have a little post up about how much I like @NaomiWWE's new #SmackDownLive #WomensChampionship title. #FeelTheGlow htt\xe2\x80\xa6""",152,'',,,
445,889519385328500741,Valerie52991033,"""RT @RealMickFoley: I have a little post up about how much I like @NaomiWWE's new #SmackDownLive #WomensChampionship title. #FeelTheGlow htt\xe2\x80\xa6""",152,'Riverside  CA',,,
446,889518915340169216,StinaRenee94,"""RT @RealMickFoley: I have a little post up about how much I like @NaomiWWE's new #SmackDownLive #WomensChampionship title. #FeelTheGlow htt\xe2\x80\xa6""",152,'Cleveland  OH',,,
447,889518606182215680,WsJack3,'RT @SlashDDashD: My reaction to Great Khali returning at #WWEBattleground last night.\n#GreatKhali #wwe #SmackDownLIVE https://t.co/MnfluUXP\xe2\x80\xa6',1,'Whitby',,,
448,889518566361501696,SlashDDashD,'My reaction to Great Khali returning at #WWEBattleground last night.\n#GreatKhali #wwe #SmackDownLIVE https://t.co/MnfluUXPIa',1,'',,,
449,889518503845408768,TheJulienG,"""RT @RealMickFoley: I have a little post up about how much I like @NaomiWWE's new #SmackDownLive #WomensChampionship title. #FeelTheGlow htt\xe2\x80\xa6""",152,'Paris  FR',,,
450,889518425566871552,Rexxxmachine,"""Man I don't understand what the hell is going with #SmackDownLIVE  it's getting Worse \nDon't won't say but #Raw  is\xe2\x80\xa6 https://t.co/E9fbxO2uDZ""",0,'Bhopal',,,
451,889517277837754368,PhenomenalCast,"""RT @RealMickFoley: I have a little post up about how much I like @NaomiWWE's new #SmackDownLive #WomensChampionship title. #FeelTheGlow htt\xe2\x80\xa6""",152,'Dallas  TX',,,
452,889516936828268548,_ObsoleteDelete,"""RT @RealMickFoley: I have a little post up about how much I like @NaomiWWE's new #SmackDownLive #WomensChampionship title. #FeelTheGlow htt\xe2\x80\xa6""",152,'Englewood  FL',,,
453,889516933862838272,Mike_Douglas_,"'@DirtySheetsPod Naomi to keep her glow title \xf0\x9f\x99\x84, or are we heading for another Flair v Hart family feud on\xe2\x80\xa6 https://t.co/Z0t6DarP4l'",0,'South Coast UK',,,
454,889516426326933504,WWEFrontRow,"""RT @RealMickFoley: I have a little post up about how much I like @NaomiWWE's new #SmackDownLive #WomensChampionship title. #FeelTheGlow htt\xe2\x80\xa6""",152,'Queen City',,,
455,889516371511586816,DaRealTashaan,"""RT @RealMickFoley: I have a little post up about how much I like @NaomiWWE's new #SmackDownLive #WomensChampionship title. #FeelTheGlow htt\xe2\x80\xa6""",152,'',,,
456,889516287558373376,thetobymichaels,"""RT @RealMickFoley: I have a little post up about how much I like @NaomiWWE's new #SmackDownLive #WomensChampionship title. #FeelTheGlow htt\xe2\x80\xa6""",152,'Nairn',,,
457,889516266117111809,celtics34_18,"""RT @RealMickFoley: I have a little post up about how much I like @NaomiWWE's new #SmackDownLive #WomensChampionship title. #FeelTheGlow htt\xe2\x80\xa6""",152,'',,,
458,889516089054556160,NicolaBear1988,"""RT @RealMickFoley: I have a little post up about how much I like @NaomiWWE's new #SmackDownLive #WomensChampionship title. #FeelTheGlow htt\xe2\x80\xa6""",152,'Indianapolis/Chicago',,,
459,889516078073659392,tullis_grant,"""RT @RealMickFoley: I have a little post up about how much I like @NaomiWWE's new #SmackDownLive #WomensChampionship title. #FeelTheGlow htt\xe2\x80\xa6""",152,'',,,
460,889515943289802752,floydspanx,"""You know what I noticed? Idk if it's 100% true, but I think during #Raw &amp; #SmackDownLIVE, the opposite brand still performs #houseshows. Y?""",0,'New York  San Diego  Cali',,,
461,889515942757228544,RomanEmpire_AA,"""RT @RealMickFoley: I have a little post up about how much I like @NaomiWWE's new #SmackDownLive #WomensChampionship title. #FeelTheGlow htt\xe2\x80\xa6""",152,'Ambrose Asylum',,,
462,889515772514631682,vallentaza,"""RT @RealMickFoley: I have a little post up about how much I like @NaomiWWE's new #SmackDownLive #WomensChampionship title. #FeelTheGlow htt\xe2\x80\xa6""",152,'nuestramerica',,,
463,889515515319812096,MurrayDeontae,"""RT @RealMickFoley: I have a little post up about how much I like @NaomiWWE's new #SmackDownLive #WomensChampionship title. #FeelTheGlow htt\xe2\x80\xa6""",152,'Baltimore  MD',,,
464,889515506667008000,Manuel_NohelyR,"""RT @RealMickFoley: I have a little post up about how much I like @NaomiWWE's new #SmackDownLive #WomensChampionship title. #FeelTheGlow htt\xe2\x80\xa6""",152,'Jacksonville  TX',,,
465,889515364392087553,XavierRockwell7,"""RT @RealMickFoley: I have a little post up about how much I like @NaomiWWE's new #SmackDownLive #WomensChampionship title. #FeelTheGlow htt\xe2\x80\xa6""",152,'Edgewood  MD',,,
466,889515255256297472,yorkjavon,"""RT @RealMickFoley: I have a little post up about how much I like @NaomiWWE's new #SmackDownLive #WomensChampionship title. #FeelTheGlow htt\xe2\x80\xa6""",152,'SC',,,
467,889515158363615234,codycollier37,"""RT @RealMickFoley: I have a little post up about how much I like @NaomiWWE's new #SmackDownLive #WomensChampionship title. #FeelTheGlow htt\xe2\x80\xa6""",152,'Charlottesville  VA',,,
468,889515139132784642,FeelTheGlow25,"""RT @RealMickFoley: I have a little post up about how much I like @NaomiWWE's new #SmackDownLive #WomensChampionship title. #FeelTheGlow htt\xe2\x80\xa6""",152,'',,,
469,889514933838372864,LegitGloww,"""RT @RealMickFoley: I have a little post up about how much I like @NaomiWWE's new #SmackDownLive #WomensChampionship title. #FeelTheGlow htt\xe2\x80\xa6""",152,'GLOW Ave.',,,
470,889514862543556613,MelAmbReigns827,"""RT @RealMickFoley: I have a little post up about how much I like @NaomiWWE's new #SmackDownLive #WomensChampionship title. #FeelTheGlow htt\xe2\x80\xa6""",152,'Roman Empire \xf0\x9f\x91\x91 Fatu Crew \xf0\x9f\x92\x8e',,,
471,889514810106368004,KieranH29,"""RT @RealMickFoley: I have a little post up about how much I like @NaomiWWE's new #SmackDownLive #WomensChampionship title. #FeelTheGlow htt\xe2\x80\xa6""",152,'Manchester  England',,,
472,889514647191269376,SLkingcocaa,"""RT @RealMickFoley: I have a little post up about how much I like @NaomiWWE's new #SmackDownLive #WomensChampionship title. #FeelTheGlow htt\xe2\x80\xa6""",152,'Heaven',,,
473,889514566778056706,keiannagoodridg,"""RT @RealMickFoley: I have a little post up about how much I like @NaomiWWE's new #SmackDownLive #WomensChampionship title. #FeelTheGlow htt\xe2\x80\xa6""",152,'',,,
474,889514536155230208,Charan999666,"""RT @RealMickFoley: I have a little post up about how much I like @NaomiWWE's new #SmackDownLive #WomensChampionship title. #FeelTheGlow htt\xe2\x80\xa6""",152,'',,,
475,889514413723668480,theiconicglow,"""RT @RealMickFoley: I have a little post up about how much I like @NaomiWWE's new #SmackDownLive #WomensChampionship title. #FeelTheGlow htt\xe2\x80\xa6""",152,'@murphyoutsold',,,
476,889514350817325058,ronnieguadawwe,"""RT @RealMickFoley: I have a little post up about how much I like @NaomiWWE's new #SmackDownLive #WomensChampionship title. #FeelTheGlow htt\xe2\x80\xa6""",152,'San Diego  CA',,,
477,889514346983952386,solomonmissouri,"""RT @RealMickFoley: I have a little post up about how much I like @NaomiWWE's new #SmackDownLive #WomensChampionship title. #FeelTheGlow htt\xe2\x80\xa6""",152,'Atlanta  GA',,,
478,889514182957203456,LenaC__,"""RT @RealMickFoley: I have a little post up about how much I like @NaomiWWE's new #SmackDownLive #WomensChampionship title. #FeelTheGlow htt\xe2\x80\xa6""",152,'',,,
479,889514136660578306,Sportsnut2013,"""RT @RealMickFoley: I have a little post up about how much I like @NaomiWWE's new #SmackDownLive #WomensChampionship title. #FeelTheGlow htt\xe2\x80\xa6""",152,'From Saint Paul  Minnesota',,,
480,889514105501085697,heather87rose_,"""RT @RealMickFoley: I have a little post up about how much I like @NaomiWWE's new #SmackDownLive #WomensChampionship title. #FeelTheGlow htt\xe2\x80\xa6""",152,'Probably Orlando or the Beach',,,
481,889514061314105344,laochprincess,"""RT @RealMickFoley: I have a little post up about how much I like @NaomiWWE's new #SmackDownLive #WomensChampionship title. #FeelTheGlow htt\xe2\x80\xa6""",152,'',,,
482,889513991919345664,JanetteKirchner,"""RT @RealMickFoley: I have a little post up about how much I like @NaomiWWE's new #SmackDownLive #WomensChampionship title. #FeelTheGlow htt\xe2\x80\xa6""",152,'East Petersburg Pa',,,
483,889513980556955648,HaleySmith780,"""RT @RealMickFoley: I have a little post up about how much I like @NaomiWWE's new #SmackDownLive #WomensChampionship title. #FeelTheGlow htt\xe2\x80\xa6""",152,'Greensboro North Carolina',,,
484,889513975532179457,_Romans_Empire,"""RT @RealMickFoley: I have a little post up about how much I like @NaomiWWE's new #SmackDownLive #WomensChampionship title. #FeelTheGlow htt\xe2\x80\xa6""",152,'',,,
485,889513959988105218,SatbyNature,"""RT @RealMickFoley: I have a little post up about how much I like @NaomiWWE's new #SmackDownLive #WomensChampionship title. #FeelTheGlow htt\xe2\x80\xa6""",152,'Themyscira',,,
486,889513863623962624,dadez28,"""RT @RealMickFoley: I have a little post up about how much I like @NaomiWWE's new #SmackDownLive #WomensChampionship title. #FeelTheGlow htt\xe2\x80\xa6""",152,'Franklin LA',,,
487,889513815494230017,realxbutzex,"""RT @RealMickFoley: I have a little post up about how much I like @NaomiWWE's new #SmackDownLive #WomensChampionship title. #FeelTheGlow htt\xe2\x80\xa6""",152,'Twitter Kingdom',,,
488,889513420063735813,RockyRkrocky580,"""RT @RealMickFoley: I have a little post up about how much I like @NaomiWWE's new #SmackDownLive #WomensChampionship title. #FeelTheGlow htt\xe2\x80\xa6""",152,'San Diego  CA',,,
489,889513376040267777,OiitsJGallagher,"""RT @RealMickFoley: I have a little post up about how much I like @NaomiWWE's new #SmackDownLive #WomensChampionship title. #FeelTheGlow htt\xe2\x80\xa6""",152,'',,,
490,889513280359628801,TheGeneric365,"""RT @RealMickFoley: I have a little post up about how much I like @NaomiWWE's new #SmackDownLive #WomensChampionship title. #FeelTheGlow htt\xe2\x80\xa6""",152,'Parts Unknown',,,
491,889513226173632513,Thaoriginalgata,"""RT @RealMickFoley: I have a little post up about how much I like @NaomiWWE's new #SmackDownLive #WomensChampionship title. #FeelTheGlow htt\xe2\x80\xa6""",152,'#houseofhardcore',,,
492,889513165377196032,YonXs38LxnDWGCl,"""RT @WWEDanielBryan: Dear @WWECesaro, when does your Raw contract end? We'd love to have you on #SmackdownLive :)""",4227,'',,,
493,889513146628673536,RealMickFoley,"""I have a little post up about how much I like @NaomiWWE's new #SmackDownLive #WomensChampionship title.\xe2\x80\xa6 https://t.co/mRRuikdzop""",152,'',,,
494,889512928621285376,andre_aultmon,'@TripleH when are you guys going to change the #SmackDownLIVE #wwetitle to the smackdown live colors? https://t.co/hOpRnTUVCg',0,'Hackensack  NJ',,,
495,889512087352823808,WWENews24_7,'The online pre-sale for the 2018 #WWE #RoyalRumble pay-per-view from the Wells Fargo Center in Philadelphia is RUMBLE. #Raw #SmackDownLIVE',2,'United States',,,
496,889511597898596352,WIL_316,"""RT @WWEDanielBryan: Don't worry folks, next week after #SmackdownLive, @ReneeYoungWWE and I will host a pirate version of #TalkingSmack on\xe2\x80\xa6""",2074,'',,,
497,889509653935247360,RossWallace1994,'RT @WallaceReviews: #WWEBattleground #WWEChampionship #WWE #review @WWE @WWEUniverse #PunjabiPrison #SmackDownLIVE #SDLive #TalkingSmack ht\xe2\x80\xa6',1,'',,,
498,889506797282656256,TRXNTLXRD,'RT @MulliMcFly: Worst PPV in a long time..#cancelwwenetwork  #WWEBatteground #WWE  #SmackdownLive',1,'Perth  Western Australia',,,
499,889505656402739201,WallaceReviews,'#WWEBattleground #WWEChampionship #WWE #review @WWE @WWEUniverse #PunjabiPrison #SmackDownLIVE #SDLive #TalkingSmack https://t.co/pN7BTk6VA2',1,'Cumbernauld  Scotland',,,
500,889504336526667776,MarksVsSmarks69,'#SmackDownLIVE\nThe land of opportunity for new talent.. https://t.co/KpVlzqifEk',0,'',,,
501,889500043849453568,wheels_5tud,'Tomorrow go to @afterbuzztv for the #Smackdownlive after show @Gabrielle_Loren @RealRosenberg @ScottNarver @TomtheCalm @Jimbointhebooth',0,'',,,
502,889498498688831488,AmbroseWWE85,'Progress pics of @MsCharlotteWWE \n#fanart #wweart #smackdownlive #wwe #wwefanart #charlotte #charlotteflair\xe2\x80\xa6 https://t.co/0BhSwK1Igf',0,'',,,
503,889496659729809409,RhysyTWWE16,"""How long now until @realellsworth is back on #SmackDownLIVE? It's been too long.. we need to see the #Mackdaddyofsdlive""",0,'Wales  United Kingdom',,,
504,889496222989508609,TheAlmightyFox,'Puts title on Jinder. Brings back Khali. Cancels Talking Smack. Its clear @VinceMcMahon is sabotaging #SmackDownLIVE',0,'The Laminated Book of Dreams',,,
505,889495892281241604,AmbroseWWE85,'Progress pics of @MsCharlotteWWE \n#fanart #wweart #smackdownlive #wwe #wwefanart #charlotte\xe2\x80\xa6 https://t.co/dCVQ3Sc1xn',0,'',,,
506,889495455314436096,ITZ__GIRLY10,'#SmackDownLIVE take the tittle from jinder and have a rematch against #RandyOrton',0,'',,,
507,889495276473520128,michaelvanperre,'#SmackdownLive has been shit ever since #Jinder became #wwe champion.. coincidence I think not. Just put the title on Cena already',0,'Falmouth  England',,,
508,889492195887239171,Smoogiie,"""Really can't be bothered to watch the Cena and Rusev match. #WWEBattleground #SmackdownLive""",0,'Scotland/Nottingham',,,
509,889489934519848961,MADNESS_NH_97,"'@WWERoadDogg Today I pray that @WWERoadDogg stops fucking up #SmackdownLive &amp; Nakamura, Owens, Styles etc. etc.'",3,'Sunne  Sverige',,,
510,889489506558033920,30minbroadway,'@WWERoadDogg OH YOU DIDNT KNOW that #SmackdownLive is the only show with purpose &amp; direction? Well yo ass better call somebody....',0,'',,,
511,889488588244758528,NoamanSamy,"""RT @WWEDanielBryan: Don't worry folks, next week after #SmackdownLive, @ReneeYoungWWE and I will host a pirate version of #TalkingSmack on\xe2\x80\xa6""",2074,'Cairo  Egypt',,,
512,889487956234424321,wildmikefargo,"""Hey @TripleH are you guys tanking #SmackDownLIVE on purpose? Haven't you and @VinceMcMahon  hurt @WWEDanielBryan enough?  \n\n#DumpsterFire""",0,'An Open Corridor',,,
